<?xml version="1.0" encoding="UTF-8"?>
<kml xmlns="http://earth.google.com/kml/2.2">
  <Document>
    <name>13_TYSIĄCLECIE - SZPITAL</name>
    <LookAt>
      <latitude>50.817405</latitude>
      <longitude>19.118485</longitude>
      <range>5000000</range>
      <tilt>0</tilt>
      <heading>0</heading>
    </LookAt>
    <Placemark>
      <name>13 TYSIĄCLECIE - SZPITAL</name>
      <LineString>
        <extrude>1</extrude>
        <tessellate>1</tessellate>
        <altitudeMode>absolute</altitudeMode>
        <coordinates>
          19.191999,50.776174,0
          19.187365,50.784478,1
          19.189811,50.783419,2
          19.185047,50.785739,3
          19.173417,50.790582,4
          19.164813,50.796306,5
          19.16374,50.799249,6
          19.158311,50.800131,7
          19.150028,50.80127,8
          19.144707,50.806287,9
          19.143763,50.807128,10
          19.142132,50.808809,11
          19.13887,50.812728,12
          19.132175,50.811711,13
          19.127047,50.811623,14
          19.118571,50.811772,15
          19.118099,50.817649,16
          19.114108,50.819357,17
          19.110546,50.824156,18
          19.110889,50.827843,19
          19.110342,50.82993,20
        </coordinates>
      </LineString>
    </Placemark>
    <Placemark>
      <name>WALCOWNIA (1)</name>
      <Point>
        <coordinates>19.191999,50.776174</coordinates>
      </Point>
    </Placemark>
    <Placemark>
      <name>GUARDIAN (2)</name>
      <Point>
        <coordinates>19.187365,50.784478</coordinates>
      </Point>
    </Placemark>
    <Placemark>
      <name>KORFANTEGO I (3)</name>
      <Point>
        <coordinates>19.189811,50.783419</coordinates>
      </Point>
    </Placemark>
    <Placemark>
      <name>KORFANTEGO (4)</name>
      <Point>
        <coordinates>19.185047,50.785739</coordinates>
      </Point>
    </Placemark>
    <Placemark>
      <name>KUCELIN - SZPITAL (5)</name>
      <Point>
        <coordinates>19.173417,50.790582</coordinates>
      </Point>
    </Placemark>
    <Placemark>
      <name>SZPITALNA (6)</name>
      <Point>
        <coordinates>19.164813,50.796306</coordinates>
      </Point>
    </Placemark>
    <Placemark>
      <name>ŁANOWA (7)</name>
      <Point>
        <coordinates>19.16374,50.799249</coordinates>
      </Point>
    </Placemark>
    <Placemark>
      <name>CHŁODNA (8)</name>
      <Point>
        <coordinates>19.158311,50.800131</coordinates>
      </Point>
    </Placemark>
    <Placemark>
      <name>STADION MIEJSKI (9)</name>
      <Point>
        <coordinates>19.150028,50.80127</coordinates>
      </Point>
    </Placemark>
    <Placemark>
      <name>ORLIK-RUCKEMANNA (10)</name>
      <Point>
        <coordinates>19.144707,50.806287</coordinates>
      </Point>
    </Placemark>
    <Placemark>
      <name>FARADAYA (11)</name>
      <Point>
        <coordinates>19.143763,50.807128</coordinates>
      </Point>
    </Placemark>
    <Placemark>
      <name>WOLNA (12)</name>
      <Point>
        <coordinates>19.142132,50.808809</coordinates>
      </Point>
    </Placemark>
    <Placemark>
      <name>RYNEK NARUTOWICZA (13)</name>
      <Point>
        <coordinates>19.13887,50.812728</coordinates>
      </Point>
    </Placemark>
    <Placemark>
      <name>ZAWODZIE - SZPITAL (14)</name>
      <Point>
        <coordinates>19.132175,50.811711</coordinates>
      </Point>
    </Placemark>
    <Placemark>
      <name>PLAC DASZYŃSKIEGO (15)</name>
      <Point>
        <coordinates>19.127047,50.811623</coordinates>
      </Point>
    </Placemark>
    <Placemark>
      <name>II AL. NAJŚWIĘTSZEJ MARYI PANNY (16)</name>
      <Point>
        <coordinates>19.118571,50.811772</coordinates>
      </Point>
    </Placemark>
    <Placemark>
      <name>ALEJA JANA PAWŁA II (17)</name>
      <Point>
        <coordinates>19.118099,50.817649</coordinates>
      </Point>
    </Placemark>
    <Placemark>
      <name>SKRZYNECKIEGO (18)</name>
      <Point>
        <coordinates>19.114108,50.819357</coordinates>
      </Point>
    </Placemark>
    <Placemark>
      <name>DOMY STUDENCKIE (19)</name>
      <Point>
        <coordinates>19.110546,50.824156</coordinates>
      </Point>
    </Placemark>
    <Placemark>
      <name>BRONIEWSKIEGO (20)</name>
      <Point>
        <coordinates>19.110889,50.827843</coordinates>
      </Point>
    </Placemark>
    <Placemark>
      <name>TYSIĄCLECIE - SZPITAL (21)</name>
      <Point>
        <coordinates>19.110342,50.82993</coordinates>
      </Point>
    </Placemark>
  </Document>
</kml>
