<?xml version="1.0" encoding="UTF-8"?>
<kml xmlns="http://earth.google.com/kml/2.2">
  <Document>
    <name>15_BÓR - WYPALANKI</name>
    <LookAt>
      <latitude>50.817405</latitude>
      <longitude>19.118485</longitude>
      <range>5000000</range>
      <tilt>0</tilt>
      <heading>0</heading>
    </LookAt>
    <Placemark>
      <name>15 BÓR - WYPALANKI</name>
      <LineString>
        <extrude>1</extrude>
        <tessellate>1</tessellate>
        <altitudeMode>absolute</altitudeMode>
        <coordinates>
          19.139707,50.83695,0
          19.138677,50.841544,1
          19.138098,50.84447,2
          19.13018,50.846381,3
          19.126339,50.844877,4
          19.126854,50.843888,5
          19.129772,50.840284,6
          19.115889,50.831312,7
          19.136188,50.830323,8
          19.131918,50.826189,9
          19.122906,50.826718,10
          19.116898,50.825593,11
          19.117842,50.821147,12
          19.11808,50.811163,13
          19.118993,50.806267,14
          19.11804,50.801226,15
          19.115632,50.799344,16
          19.1085723,50.795709,17
          19.109302,50.788873,18
          19.117243,50.787164,19
          19.117799,50.783474,20
          19.117413,50.777151,21
          19.118958,50.773488,22
        </coordinates>
      </LineString>
    </Placemark>
    <Placemark>
      <name>KUKUCZKI (1)</name>
      <Point>
        <coordinates>19.139707,50.83695</coordinates>
      </Point>
    </Placemark>
    <Placemark>
      <name>WITOSA (2)</name>
      <Point>
        <coordinates>19.138677,50.841544</coordinates>
      </Point>
    </Placemark>
    <Placemark>
      <name>KOSMOWSKIEJ (3)</name>
      <Point>
        <coordinates>19.138098,50.84447</coordinates>
      </Point>
    </Placemark>
    <Placemark>
      <name>STARZYŃSKIEGO (4)</name>
      <Point>
        <coordinates>19.13018,50.846381</coordinates>
      </Point>
    </Placemark>
    <Placemark>
      <name>MICHAŁOWSKIEGO (5)</name>
      <Point>
        <coordinates>19.126339,50.844877</coordinates>
      </Point>
    </Placemark>
    <Placemark>
      <name>BACEWICZ (6)</name>
      <Point>
        <coordinates>19.126854,50.843888</coordinates>
      </Point>
    </Placemark>
    <Placemark>
      <name>FIELDORFA-NILA (7)</name>
      <Point>
        <coordinates>19.129772,50.840284</coordinates>
      </Point>
    </Placemark>
    <Placemark>
      <name>GOMBROWICZA (8)</name>
      <Point>
        <coordinates>19.115889,50.831312</coordinates>
      </Point>
    </Placemark>
    <Placemark>
      <name>FIELDORFA-NILA - CMENTARZ-KULE (9)</name>
      <Point>
        <coordinates>19.136188,50.830323</coordinates>
      </Point>
    </Placemark>
    <Placemark>
      <name>ROLNICZA - CMENTARZ KULE (10)</name>
      <Point>
        <coordinates>19.131918,50.826189</coordinates>
      </Point>
    </Placemark>
    <Placemark>
      <name>KIEDRZYŃSKA (11)</name>
      <Point>
        <coordinates>19.122906,50.826718</coordinates>
      </Point>
    </Placemark>
    <Placemark>
      <name>HALA POLONIA (12)</name>
      <Point>
        <coordinates>19.116898,50.825593</coordinates>
      </Point>
    </Placemark>
    <Placemark>
      <name>POLITECHNIKA (13)</name>
      <Point>
        <coordinates>19.117842,50.821147</coordinates>
      </Point>
    </Placemark>
    <Placemark>
      <name>D. H. CENTRUM (14)</name>
      <Point>
        <coordinates>19.11808,50.811163</coordinates>
      </Point>
    </Placemark>
    <Placemark>
      <name>DWORZEC PKS (15)</name>
      <Point>
        <coordinates>19.118993,50.806267</coordinates>
      </Point>
    </Placemark>
    <Placemark>
      <name>RONDO MICKIEWICZA  (16)</name>
      <Point>
        <coordinates>19.11804,50.801226</coordinates>
      </Point>
    </Placemark>
    <Placemark>
      <name>1 MAJA - UCZELNIA (17)</name>
      <Point>
        <coordinates>19.115632,50.799344</coordinates>
      </Point>
    </Placemark>
    <Placemark>
      <name>AL. BOHATERÓW MONTE CASSINO (18)</name>
      <Point>
        <coordinates>19.1085723,50.795709</coordinates>
      </Point>
    </Placemark>
    <Placemark>
      <name>JAGIELLOŃSKA (19)</name>
      <Point>
        <coordinates>19.109302,50.788873</coordinates>
      </Point>
    </Placemark>
    <Placemark>
      <name>DOJAZDOWA (20)</name>
      <Point>
        <coordinates>19.117243,50.787164</coordinates>
      </Point>
    </Placemark>
    <Placemark>
      <name>MONTEX (21)</name>
      <Point>
        <coordinates>19.117799,50.783474</coordinates>
      </Point>
    </Placemark>
    <Placemark>
      <name>WCZASOWA (22)</name>
      <Point>
        <coordinates>19.117413,50.777151</coordinates>
      </Point>
    </Placemark>
    <Placemark>
      <name>BÓR - WYPALANKI (23)</name>
      <Point>
        <coordinates>19.118958,50.773488</coordinates>
      </Point>
    </Placemark>
  </Document>
</kml>
