<?xml version="1.0" encoding="UTF-8"?>
<kml xmlns="http://earth.google.com/kml/2.2">
  <Document>
    <name>19_ŻABINIEC</name>
    <LookAt>
      <latitude>50.817405</latitude>
      <longitude>19.118485</longitude>
      <range>5000000</range>
      <tilt>0</tilt>
      <heading>0</heading>
    </LookAt>
    <Placemark>
      <name>19 ŻABINIEC</name>
      <LineString>
        <extrude>1</extrude>
        <tessellate>1</tessellate>
        <altitudeMode>absolute</altitudeMode>
        <coordinates>
          19.173417,50.790582,0
          19.160414,50.791613,1
          19.155006,50.78909,2
          19.153891,50.784423,3
          19.155865,50.784451,4
          19.156895,50.778128,5
          19.157238,50.775143,6
          19.156401,50.772809,7
          19.14784,50.778318,8
          19.145908,50.78053,9
          19.140415,50.783745,10
          19.13475,50.78247,11
          19.127305,50.784342,12
          19.117243,50.787164,13
          19.109302,50.788873,14
          19.101276,50.789388,15
          19.103336,50.795845,16
          19.1085723,50.795709,17
          19.111034,50.799066,18
          19.111179,50.802619,19
          19.113816,50.806004,20
          19.112145,50.807914,21
          19.113078,50.811874,22
          19.1118763,50.817134,23
          19.103894,50.81711,24
          19.096577,50.816497,25
          19.086996,50.819222,26
          19.081278,50.82215,27
          19.072909,50.828792,28
          19.075377,50.826908,29
          19.059863,50.837113,30
          19.060008,50.837621,31
          19.060426,50.839098,32
          19.062266,50.845134,33
          19.066386,50.857706,34
        </coordinates>
      </LineString>
    </Placemark>
    <Placemark>
      <name>KUCELIN - SZPITAL (1)</name>
      <Point>
        <coordinates>19.173417,50.790582</coordinates>
      </Point>
    </Placemark>
    <Placemark>
      <name>DĄBIE (2)</name>
      <Point>
        <coordinates>19.160414,50.791613</coordinates>
      </Point>
    </Placemark>
    <Placemark>
      <name>REJTANA (3)</name>
      <Point>
        <coordinates>19.155006,50.78909</coordinates>
      </Point>
    </Placemark>
    <Placemark>
      <name>PRUSA (4)</name>
      <Point>
        <coordinates>19.153891,50.784423</coordinates>
      </Point>
    </Placemark>
    <Placemark>
      <name>STARY RAKÓW (5)</name>
      <Point>
        <coordinates>19.155865,50.784451</coordinates>
      </Point>
    </Placemark>
    <Placemark>
      <name>STADION RAKÓW (6)</name>
      <Point>
        <coordinates>19.156895,50.778128</coordinates>
      </Point>
    </Placemark>
    <Placemark>
      <name>ŻARECKA (7)</name>
      <Point>
        <coordinates>19.157238,50.775143</coordinates>
      </Point>
    </Placemark>
    <Placemark>
      <name>RAKOWSKA (8)</name>
      <Point>
        <coordinates>19.156401,50.772809</coordinates>
      </Point>
    </Placemark>
    <Placemark>
      <name>MIRECKIEGO (9)</name>
      <Point>
        <coordinates>19.14784,50.778318</coordinates>
      </Point>
    </Placemark>
    <Placemark>
      <name>OKRZEI (10)</name>
      <Point>
        <coordinates>19.145908,50.78053</coordinates>
      </Point>
    </Placemark>
    <Placemark>
      <name>PZU (11)</name>
      <Point>
        <coordinates>19.140415,50.783745</coordinates>
      </Point>
    </Placemark>
    <Placemark>
      <name>KASZTANOWA (12)</name>
      <Point>
        <coordinates>19.13475,50.78247</coordinates>
      </Point>
    </Placemark>
    <Placemark>
      <name>MAKRO (13)</name>
      <Point>
        <coordinates>19.127305,50.784342</coordinates>
      </Point>
    </Placemark>
    <Placemark>
      <name>DOJAZDOWA (14)</name>
      <Point>
        <coordinates>19.117243,50.787164</coordinates>
      </Point>
    </Placemark>
    <Placemark>
      <name>JAGIELLOŃSKA (15)</name>
      <Point>
        <coordinates>19.109302,50.788873</coordinates>
      </Point>
    </Placemark>
    <Placemark>
      <name>SABINOWSKA (16)</name>
      <Point>
        <coordinates>19.101276,50.789388</coordinates>
      </Point>
    </Placemark>
    <Placemark>
      <name>PIASTOWSKA (17)</name>
      <Point>
        <coordinates>19.103336,50.795845</coordinates>
      </Point>
    </Placemark>
    <Placemark>
      <name>AL. BOHATERÓW MONTE CASSINO (18)</name>
      <Point>
        <coordinates>19.1085723,50.795709</coordinates>
      </Point>
    </Placemark>
    <Placemark>
      <name>HOENE - WROŃSKIEGO (19)</name>
      <Point>
        <coordinates>19.111034,50.799066</coordinates>
      </Point>
    </Placemark>
    <Placemark>
      <name>SŁOWACKIEGO (20)</name>
      <Point>
        <coordinates>19.111179,50.802619</coordinates>
      </Point>
    </Placemark>
    <Placemark>
      <name>PLAC PAMIĘCI NARODOWEJ (21)</name>
      <Point>
        <coordinates>19.113816,50.806004</coordinates>
      </Point>
    </Placemark>
    <Placemark>
      <name>KOPERNIKA (22)</name>
      <Point>
        <coordinates>19.112145,50.807914</coordinates>
      </Point>
    </Placemark>
    <Placemark>
      <name>PLAC BIEGAŃSKIEGO (23)</name>
      <Point>
        <coordinates>19.113078,50.811874</coordinates>
      </Point>
    </Placemark>
    <Placemark>
      <name>DĄBROWSKIEGO - SĄDY (24)</name>
      <Point>
        <coordinates>19.1118763,50.817134</coordinates>
      </Point>
    </Placemark>
    <Placemark>
      <name>KOMENDA MIEJSKA POLICJI (25)</name>
      <Point>
        <coordinates>19.103894,50.81711</coordinates>
      </Point>
    </Placemark>
    <Placemark>
      <name>RYNEK WIELUŃSKI (26)</name>
      <Point>
        <coordinates>19.096577,50.816497</coordinates>
      </Point>
    </Placemark>
    <Placemark>
      <name>CMENTARZ ŚW. ROCHA (27)</name>
      <Point>
        <coordinates>19.086996,50.819222</coordinates>
      </Point>
    </Placemark>
    <Placemark>
      <name>WRĘCZYCKA (28)</name>
      <Point>
        <coordinates>19.081278,50.82215</coordinates>
      </Point>
    </Placemark>
    <Placemark>
      <name>ODRODZENIA (29)</name>
      <Point>
        <coordinates>19.072909,50.828792</coordinates>
      </Point>
    </Placemark>
    <Placemark>
      <name>ŚW. ROCHA - SZKOŁA (30)</name>
      <Point>
        <coordinates>19.075377,50.826908</coordinates>
      </Point>
    </Placemark>
    <Placemark>
      <name>GRABÓWKA (31)</name>
      <Point>
        <coordinates>19.059863,50.837113</coordinates>
      </Point>
    </Placemark>
    <Placemark>
      <name>IKARA I (32)</name>
      <Point>
        <coordinates>19.060008,50.837621</coordinates>
      </Point>
    </Placemark>
    <Placemark>
      <name>IKARA II (33)</name>
      <Point>
        <coordinates>19.060426,50.839098</coordinates>
      </Point>
    </Placemark>
    <Placemark>
      <name>IKARA III (34)</name>
      <Point>
        <coordinates>19.062266,50.845134</coordinates>
      </Point>
    </Placemark>
    <Placemark>
      <name>ŻABINIEC (35)</name>
      <Point>
        <coordinates>19.066386,50.857706</coordinates>
      </Point>
    </Placemark>
  </Document>
</kml>
