<?xml version="1.0" encoding="UTF-8"?>
<kml xmlns="http://earth.google.com/kml/2.2">
  <Document>
    <name>23_LEŚNA</name>
    <LookAt>
      <latitude>50.817405</latitude>
      <longitude>19.118485</longitude>
      <range>5000000</range>
      <tilt>0</tilt>
      <heading>0</heading>
    </LookAt>
    <Placemark>
      <name>23 LEŚNA</name>
      <LineString>
        <extrude>1</extrude>
        <tessellate>1</tessellate>
        <altitudeMode>absolute</altitudeMode>
        <coordinates>
          19.155972,50.788941,0
          19.149685,50.791803,1
          19.14211,50.793661,2
          19.134665,50.795085,3
          19.130073,50.800971,4
          19.131038,50.802829,5
          19.12783,50.807026,6
          19.124824,50.811945,7
          19.118571,50.811772,8
          19.11808,50.811163,9
          19.118993,50.806267,10
          19.112295,50.805263,11
          19.105418,50.805321,12
          19.102373,50.802899,13
          19.107456,50.798056,14
          19.1085723,50.795709,15
          19.103336,50.795845,16
          19.101276,50.789388,17
          19.099903,50.785644,18
          19.098873,50.781981,19
          19.094238,50.77403,20
          19.093251,50.773623,21
          19.085526,50.771479,22
          19.07542,50.766933,23
          19.071965,50.765047,24
          19.0618593,50.760744,25
          19.053726,50.762332,26
          19.041924,50.764585,27
          19.033556,50.762916,28
          19.022784,50.761545,29
        </coordinates>
      </LineString>
    </Placemark>
    <Placemark>
      <name>REJTANA - SĄDY (1)</name>
      <Point>
        <coordinates>19.155972,50.788941</coordinates>
      </Point>
    </Placemark>
    <Placemark>
      <name>ŻEROMSKIEGO (2)</name>
      <Point>
        <coordinates>19.149685,50.791803</coordinates>
      </Point>
    </Placemark>
    <Placemark>
      <name>POLONTEX (3)</name>
      <Point>
        <coordinates>19.14211,50.793661</coordinates>
      </Point>
    </Placemark>
    <Placemark>
      <name>ARCHIWUM PAŃSTWOWE (4)</name>
      <Point>
        <coordinates>19.134665,50.795085</coordinates>
      </Point>
    </Placemark>
    <Placemark>
      <name>KRAKOWSKA (5)</name>
      <Point>
        <coordinates>19.130073,50.800971</coordinates>
      </Point>
    </Placemark>
    <Placemark>
      <name>KANAŁ KOHNA (6)</name>
      <Point>
        <coordinates>19.131038,50.802829</coordinates>
      </Point>
    </Placemark>
    <Placemark>
      <name>GALERIA JURAJSKA (7)</name>
      <Point>
        <coordinates>19.12783,50.807026</coordinates>
      </Point>
    </Placemark>
    <Placemark>
      <name>I AL. NAJŚWIĘTSZEJ MARYI PANNY (8)</name>
      <Point>
        <coordinates>19.124824,50.811945</coordinates>
      </Point>
    </Placemark>
    <Placemark>
      <name>II AL. NAJŚWIĘTSZEJ MARYI PANNY (9)</name>
      <Point>
        <coordinates>19.118571,50.811772</coordinates>
      </Point>
    </Placemark>
    <Placemark>
      <name>D. H. CENTRUM (10)</name>
      <Point>
        <coordinates>19.11808,50.811163</coordinates>
      </Point>
    </Placemark>
    <Placemark>
      <name>DWORZEC PKS (11)</name>
      <Point>
        <coordinates>19.118993,50.806267</coordinates>
      </Point>
    </Placemark>
    <Placemark>
      <name>KORCZAKA (12)</name>
      <Point>
        <coordinates>19.112295,50.805263</coordinates>
      </Point>
    </Placemark>
    <Placemark>
      <name>SKWER SOKOŁÓW (13)</name>
      <Point>
        <coordinates>19.105418,50.805321</coordinates>
      </Point>
    </Placemark>
    <Placemark>
      <name>ZANA (14)</name>
      <Point>
        <coordinates>19.102373,50.802899</coordinates>
      </Point>
    </Placemark>
    <Placemark>
      <name>STRADOM - DWORZEC PKP (15)</name>
      <Point>
        <coordinates>19.107456,50.798056</coordinates>
      </Point>
    </Placemark>
    <Placemark>
      <name>AL. BOHATERÓW MONTE CASSINO (16)</name>
      <Point>
        <coordinates>19.1085723,50.795709</coordinates>
      </Point>
    </Placemark>
    <Placemark>
      <name>PIASTOWSKA (17)</name>
      <Point>
        <coordinates>19.103336,50.795845</coordinates>
      </Point>
    </Placemark>
    <Placemark>
      <name>SABINOWSKA (18)</name>
      <Point>
        <coordinates>19.101276,50.789388</coordinates>
      </Point>
    </Placemark>
    <Placemark>
      <name>SZKOŁA STRAŻY POŻARNEJ (19)</name>
      <Point>
        <coordinates>19.099903,50.785644</coordinates>
      </Point>
    </Placemark>
    <Placemark>
      <name>HETMAŃSKA (20)</name>
      <Point>
        <coordinates>19.098873,50.781981</coordinates>
      </Point>
    </Placemark>
    <Placemark>
      <name>SABINÓW (21)</name>
      <Point>
        <coordinates>19.094238,50.77403</coordinates>
      </Point>
    </Placemark>
    <Placemark>
      <name>KMICICA (22)</name>
      <Point>
        <coordinates>19.093251,50.773623</coordinates>
      </Point>
    </Placemark>
    <Placemark>
      <name>ZBYSZKA (23)</name>
      <Point>
        <coordinates>19.085526,50.771479</coordinates>
      </Point>
    </Placemark>
    <Placemark>
      <name>RZECZNA (24)</name>
      <Point>
        <coordinates>19.07542,50.766933</coordinates>
      </Point>
    </Placemark>
    <Placemark>
      <name>POWSTAŃCÓW WARSZAWY (25)</name>
      <Point>
        <coordinates>19.071965,50.765047</coordinates>
      </Point>
    </Placemark>
    <Placemark>
      <name>DŹBÓW (26)</name>
      <Point>
        <coordinates>19.0618593,50.760744</coordinates>
      </Point>
    </Placemark>
    <Placemark>
      <name>KOPALNIANA II (27)</name>
      <Point>
        <coordinates>19.053726,50.762332</coordinates>
      </Point>
    </Placemark>
    <Placemark>
      <name>CHŁOPSKA (28)</name>
      <Point>
        <coordinates>19.041924,50.764585</coordinates>
      </Point>
    </Placemark>
    <Placemark>
      <name>SKORKI (29)</name>
      <Point>
        <coordinates>19.033556,50.762916</coordinates>
      </Point>
    </Placemark>
    <Placemark>
      <name>LEŚNA (30)</name>
      <Point>
        <coordinates>19.022784,50.761545</coordinates>
      </Point>
    </Placemark>
  </Document>
</kml>
