<?xml version="1.0" encoding="UTF-8"?>
<kml xmlns="http://earth.google.com/kml/2.2">
  <Document>
    <name>23_REJTANA - SĄDY</name>
    <LookAt>
      <latitude>50.817405</latitude>
      <longitude>19.118485</longitude>
      <range>5000000</range>
      <tilt>0</tilt>
      <heading>0</heading>
    </LookAt>
    <Placemark>
      <name>23 REJTANA - SĄDY</name>
      <LineString>
        <extrude>1</extrude>
        <tessellate>1</tessellate>
        <altitudeMode>absolute</altitudeMode>
        <coordinates>
          19.022784,50.761545,0
          19.033556,50.762916,1
          19.041924,50.764585,2
          19.053726,50.762332,3
          19.0618593,50.760744,4
          19.071965,50.765047,5
          19.07542,50.766933,6
          19.085526,50.771479,7
          19.093251,50.773623,8
          19.094238,50.77403,9
          19.098873,50.781981,10
          19.099903,50.785644,11
          19.101276,50.789388,12
          19.103336,50.795845,13
          19.1085723,50.795709,14
          19.112177,50.798001,15
          19.107456,50.798056,16
          19.102373,50.802899,17
          19.105418,50.805321,18
          19.112295,50.805263,19
          19.113816,50.806004,20
          19.118993,50.806267,21
          19.118571,50.811772,22
          19.124824,50.811945,23
          19.127734,50.807562,24
          19.129139,50.802687,25
          19.134665,50.795085,26
          19.14211,50.793661,27
          19.149685,50.791803,28
          19.155972,50.788941,29
        </coordinates>
      </LineString>
    </Placemark>
    <Placemark>
      <name>LEŚNA (1)</name>
      <Point>
        <coordinates>19.022784,50.761545</coordinates>
      </Point>
    </Placemark>
    <Placemark>
      <name>SKORKI (2)</name>
      <Point>
        <coordinates>19.033556,50.762916</coordinates>
      </Point>
    </Placemark>
    <Placemark>
      <name>CHŁOPSKA (3)</name>
      <Point>
        <coordinates>19.041924,50.764585</coordinates>
      </Point>
    </Placemark>
    <Placemark>
      <name>KOPALNIANA II (4)</name>
      <Point>
        <coordinates>19.053726,50.762332</coordinates>
      </Point>
    </Placemark>
    <Placemark>
      <name>DŹBÓW (5)</name>
      <Point>
        <coordinates>19.0618593,50.760744</coordinates>
      </Point>
    </Placemark>
    <Placemark>
      <name>POWSTAŃCÓW WARSZAWY (6)</name>
      <Point>
        <coordinates>19.071965,50.765047</coordinates>
      </Point>
    </Placemark>
    <Placemark>
      <name>RZECZNA (7)</name>
      <Point>
        <coordinates>19.07542,50.766933</coordinates>
      </Point>
    </Placemark>
    <Placemark>
      <name>ZBYSZKA (8)</name>
      <Point>
        <coordinates>19.085526,50.771479</coordinates>
      </Point>
    </Placemark>
    <Placemark>
      <name>KMICICA (9)</name>
      <Point>
        <coordinates>19.093251,50.773623</coordinates>
      </Point>
    </Placemark>
    <Placemark>
      <name>SABINÓW (10)</name>
      <Point>
        <coordinates>19.094238,50.77403</coordinates>
      </Point>
    </Placemark>
    <Placemark>
      <name>HETMAŃSKA (11)</name>
      <Point>
        <coordinates>19.098873,50.781981</coordinates>
      </Point>
    </Placemark>
    <Placemark>
      <name>SZKOŁA STRAŻY POŻARNEJ (12)</name>
      <Point>
        <coordinates>19.099903,50.785644</coordinates>
      </Point>
    </Placemark>
    <Placemark>
      <name>SABINOWSKA (13)</name>
      <Point>
        <coordinates>19.101276,50.789388</coordinates>
      </Point>
    </Placemark>
    <Placemark>
      <name>PIASTOWSKA (14)</name>
      <Point>
        <coordinates>19.103336,50.795845</coordinates>
      </Point>
    </Placemark>
    <Placemark>
      <name>AL. BOHATERÓW MONTE CASSINO (15)</name>
      <Point>
        <coordinates>19.1085723,50.795709</coordinates>
      </Point>
    </Placemark>
    <Placemark>
      <name>STRADOM (16)</name>
      <Point>
        <coordinates>19.112177,50.798001</coordinates>
      </Point>
    </Placemark>
    <Placemark>
      <name>STRADOM - DWORZEC PKP (17)</name>
      <Point>
        <coordinates>19.107456,50.798056</coordinates>
      </Point>
    </Placemark>
    <Placemark>
      <name>ZANA (18)</name>
      <Point>
        <coordinates>19.102373,50.802899</coordinates>
      </Point>
    </Placemark>
    <Placemark>
      <name>SKWER SOKOŁÓW (19)</name>
      <Point>
        <coordinates>19.105418,50.805321</coordinates>
      </Point>
    </Placemark>
    <Placemark>
      <name>KORCZAKA (20)</name>
      <Point>
        <coordinates>19.112295,50.805263</coordinates>
      </Point>
    </Placemark>
    <Placemark>
      <name>PLAC PAMIĘCI NARODOWEJ (21)</name>
      <Point>
        <coordinates>19.113816,50.806004</coordinates>
      </Point>
    </Placemark>
    <Placemark>
      <name>DWORZEC PKS (22)</name>
      <Point>
        <coordinates>19.118993,50.806267</coordinates>
      </Point>
    </Placemark>
    <Placemark>
      <name>II AL. NAJŚWIĘTSZEJ MARYI PANNY (23)</name>
      <Point>
        <coordinates>19.118571,50.811772</coordinates>
      </Point>
    </Placemark>
    <Placemark>
      <name>I AL. NAJŚWIĘTSZEJ MARYI PANNY (24)</name>
      <Point>
        <coordinates>19.124824,50.811945</coordinates>
      </Point>
    </Placemark>
    <Placemark>
      <name>MIELCZARSKIEGO (25)</name>
      <Point>
        <coordinates>19.127734,50.807562</coordinates>
      </Point>
    </Placemark>
    <Placemark>
      <name>MAŁA (26)</name>
      <Point>
        <coordinates>19.129139,50.802687</coordinates>
      </Point>
    </Placemark>
    <Placemark>
      <name>ARCHIWUM PAŃSTWOWE (27)</name>
      <Point>
        <coordinates>19.134665,50.795085</coordinates>
      </Point>
    </Placemark>
    <Placemark>
      <name>POLONTEX (28)</name>
      <Point>
        <coordinates>19.14211,50.793661</coordinates>
      </Point>
    </Placemark>
    <Placemark>
      <name>ŻEROMSKIEGO (29)</name>
      <Point>
        <coordinates>19.149685,50.791803</coordinates>
      </Point>
    </Placemark>
    <Placemark>
      <name>REJTANA - SĄDY (30)</name>
      <Point>
        <coordinates>19.155972,50.788941</coordinates>
      </Point>
    </Placemark>
  </Document>
</kml>
