<?xml version="1.0" encoding="UTF-8"?>
<kml xmlns="http://earth.google.com/kml/2.2">
  <Document>
    <name>25_KUKUCZKI</name>
    <LookAt>
      <latitude>50.817405</latitude>
      <longitude>19.118485</longitude>
      <range>5000000</range>
      <tilt>0</tilt>
      <heading>0</heading>
    </LookAt>
    <Placemark>
      <name>25 KUKUCZKI</name>
      <LineString>
        <extrude>1</extrude>
        <tessellate>1</tessellate>
        <altitudeMode>absolute</altitudeMode>
        <coordinates>
          19.07939,50.734174,0
          19.083681,50.733467,1
          19.087436,50.737623,2
          19.093165,50.744005,3
          19.093852,50.745282,4
          19.093723,50.751282,5
          19.094024,50.758749,6
          19.093852,50.757894,7
          19.095054,50.766865,8
          19.097114,50.771534,9
          19.094238,50.77403,10
          19.098873,50.781981,11
          19.099903,50.785644,12
          19.101276,50.789388,13
          19.109302,50.788873,14
          19.1085723,50.795709,15
          19.111034,50.799066,16
          19.111179,50.802619,17
          19.113816,50.806004,18
          19.112145,50.807914,19
          19.113078,50.811874,20
          19.1118763,50.817134,21
          19.103894,50.81711,22
          19.104538,50.820849,23
          19.104559,50.823939,24
          19.105096,50.827219,25
          19.105439,50.83096,26
          19.110053,50.833061,27
          19.115889,50.834633,28
          19.120857,50.837092,29
          19.124622,50.837817,30
          19.129772,50.840284,31
          19.126854,50.843888,32
          19.126339,50.844877,33
          19.13018,50.846381,34
          19.138098,50.84447,35
          19.138677,50.841544,36
          19.139707,50.83695,37
        </coordinates>
      </LineString>
    </Placemark>
    <Placemark>
      <name>MALOWNICZA (1)</name>
      <Point>
        <coordinates>19.07939,50.734174</coordinates>
      </Point>
    </Placemark>
    <Placemark>
      <name>SOBUCZYNA (2)</name>
      <Point>
        <coordinates>19.083681,50.733467</coordinates>
      </Point>
    </Placemark>
    <Placemark>
      <name>SOBUCZYNA-SZAFIROWA (3)</name>
      <Point>
        <coordinates>19.087436,50.737623</coordinates>
      </Point>
    </Placemark>
    <Placemark>
      <name>NOWE BRZEZINY II (4)</name>
      <Point>
        <coordinates>19.093165,50.744005</coordinates>
      </Point>
    </Placemark>
    <Placemark>
      <name>NOWE BRZEZINY I (5)</name>
      <Point>
        <coordinates>19.093852,50.745282</coordinates>
      </Point>
    </Placemark>
    <Placemark>
      <name>BRZEZINY (6)</name>
      <Point>
        <coordinates>19.093723,50.751282</coordinates>
      </Point>
    </Placemark>
    <Placemark>
      <name>ŻYZNA (7)</name>
      <Point>
        <coordinates>19.094024,50.758749</coordinates>
      </Point>
    </Placemark>
    <Placemark>
      <name>LISIA (8)</name>
      <Point>
        <coordinates>19.093852,50.757894</coordinates>
      </Point>
    </Placemark>
    <Placemark>
      <name>GRONOWA (9)</name>
      <Point>
        <coordinates>19.095054,50.766865</coordinates>
      </Point>
    </Placemark>
    <Placemark>
      <name>POSELSKA (10)</name>
      <Point>
        <coordinates>19.097114,50.771534</coordinates>
      </Point>
    </Placemark>
    <Placemark>
      <name>SABINÓW (11)</name>
      <Point>
        <coordinates>19.094238,50.77403</coordinates>
      </Point>
    </Placemark>
    <Placemark>
      <name>HETMAŃSKA (12)</name>
      <Point>
        <coordinates>19.098873,50.781981</coordinates>
      </Point>
    </Placemark>
    <Placemark>
      <name>SZKOŁA STRAŻY POŻARNEJ (13)</name>
      <Point>
        <coordinates>19.099903,50.785644</coordinates>
      </Point>
    </Placemark>
    <Placemark>
      <name>SABINOWSKA (14)</name>
      <Point>
        <coordinates>19.101276,50.789388</coordinates>
      </Point>
    </Placemark>
    <Placemark>
      <name>JAGIELLOŃSKA (15)</name>
      <Point>
        <coordinates>19.109302,50.788873</coordinates>
      </Point>
    </Placemark>
    <Placemark>
      <name>AL. BOHATERÓW MONTE CASSINO (16)</name>
      <Point>
        <coordinates>19.1085723,50.795709</coordinates>
      </Point>
    </Placemark>
    <Placemark>
      <name>HOENE - WROŃSKIEGO (17)</name>
      <Point>
        <coordinates>19.111034,50.799066</coordinates>
      </Point>
    </Placemark>
    <Placemark>
      <name>SŁOWACKIEGO (18)</name>
      <Point>
        <coordinates>19.111179,50.802619</coordinates>
      </Point>
    </Placemark>
    <Placemark>
      <name>PLAC PAMIĘCI NARODOWEJ (19)</name>
      <Point>
        <coordinates>19.113816,50.806004</coordinates>
      </Point>
    </Placemark>
    <Placemark>
      <name>KOPERNIKA (20)</name>
      <Point>
        <coordinates>19.112145,50.807914</coordinates>
      </Point>
    </Placemark>
    <Placemark>
      <name>PLAC BIEGAŃSKIEGO (21)</name>
      <Point>
        <coordinates>19.113078,50.811874</coordinates>
      </Point>
    </Placemark>
    <Placemark>
      <name>DĄBROWSKIEGO - SĄDY (22)</name>
      <Point>
        <coordinates>19.1118763,50.817134</coordinates>
      </Point>
    </Placemark>
    <Placemark>
      <name>KOMENDA MIEJSKA POLICJI (23)</name>
      <Point>
        <coordinates>19.103894,50.81711</coordinates>
      </Point>
    </Placemark>
    <Placemark>
      <name>SŁONIMSKIEGO (24)</name>
      <Point>
        <coordinates>19.104538,50.820849</coordinates>
      </Point>
    </Placemark>
    <Placemark>
      <name>MARKET OBI (25)</name>
      <Point>
        <coordinates>19.104559,50.823939</coordinates>
      </Point>
    </Placemark>
    <Placemark>
      <name>WAWRZYNOWICZA (26)</name>
      <Point>
        <coordinates>19.105096,50.827219</coordinates>
      </Point>
    </Placemark>
    <Placemark>
      <name>OBROŃCÓW POCZTY GDAŃSKIEJ (27)</name>
      <Point>
        <coordinates>19.105439,50.83096</coordinates>
      </Point>
    </Placemark>
    <Placemark>
      <name>KOŁAKOWSKIEGO (28)</name>
      <Point>
        <coordinates>19.110053,50.833061</coordinates>
      </Point>
    </Placemark>
    <Placemark>
      <name>OBROŃCÓW WESTERPLATTE (29)</name>
      <Point>
        <coordinates>19.115889,50.834633</coordinates>
      </Point>
    </Placemark>
    <Placemark>
      <name>IWASZKIEWICZA (30)</name>
      <Point>
        <coordinates>19.120857,50.837092</coordinates>
      </Point>
    </Placemark>
    <Placemark>
      <name>BACZYŃSKIEGO (31)</name>
      <Point>
        <coordinates>19.124622,50.837817</coordinates>
      </Point>
    </Placemark>
    <Placemark>
      <name>FIELDORFA-NILA (32)</name>
      <Point>
        <coordinates>19.129772,50.840284</coordinates>
      </Point>
    </Placemark>
    <Placemark>
      <name>BACEWICZ (33)</name>
      <Point>
        <coordinates>19.126854,50.843888</coordinates>
      </Point>
    </Placemark>
    <Placemark>
      <name>MICHAŁOWSKIEGO (34)</name>
      <Point>
        <coordinates>19.126339,50.844877</coordinates>
      </Point>
    </Placemark>
    <Placemark>
      <name>STARZYŃSKIEGO (35)</name>
      <Point>
        <coordinates>19.13018,50.846381</coordinates>
      </Point>
    </Placemark>
    <Placemark>
      <name>KOSMOWSKIEJ (36)</name>
      <Point>
        <coordinates>19.138098,50.84447</coordinates>
      </Point>
    </Placemark>
    <Placemark>
      <name>WITOSA (37)</name>
      <Point>
        <coordinates>19.138677,50.841544</coordinates>
      </Point>
    </Placemark>
    <Placemark>
      <name>KUKUCZKI (38)</name>
      <Point>
        <coordinates>19.139707,50.83695</coordinates>
      </Point>
    </Placemark>
  </Document>
</kml>
