<?xml version="1.0" encoding="UTF-8"?>
<kml xmlns="http://earth.google.com/kml/2.2">
  <Document>
    <name>29_GOMBROWICZA</name>
    <LookAt>
      <latitude>50.817405</latitude>
      <longitude>19.118485</longitude>
      <range>5000000</range>
      <tilt>0</tilt>
      <heading>0</heading>
    </LookAt>
    <Placemark>
      <name>29 GOMBROWICZA</name>
      <LineString>
        <extrude>1</extrude>
        <tessellate>1</tessellate>
        <altitudeMode>absolute</altitudeMode>
        <coordinates>
          19.059863,50.837113,0
          19.075377,50.826908,1
          19.072909,50.828792,2
          19.081278,50.82215,3
          19.086996,50.819222,4
          19.088316,50.822638,5
          19.093423,50.82478,6
          19.088037,50.829334,7
          19.088616,50.82871,8
          19.093573,50.824102,9
          19.100461,50.823831,10
          19.104559,50.823939,11
          19.110546,50.824156,12
          19.116898,50.825593,13
          19.122906,50.826718,14
          19.119709,50.830703,15
          19.11664,50.833671,16
          19.120857,50.837092,17
          19.119623,50.842601,18
          19.126339,50.844877,19
          19.13018,50.846381,20
          19.138098,50.84447,21
          19.138677,50.841544,22
          19.129772,50.840284,23
          19.115889,50.831312,24
        </coordinates>
      </LineString>
    </Placemark>
    <Placemark>
      <name>GRABÓWKA (1)</name>
      <Point>
        <coordinates>19.059863,50.837113</coordinates>
      </Point>
    </Placemark>
    <Placemark>
      <name>ŚW. ROCHA - SZKOŁA (2)</name>
      <Point>
        <coordinates>19.075377,50.826908</coordinates>
      </Point>
    </Placemark>
    <Placemark>
      <name>ODRODZENIA (3)</name>
      <Point>
        <coordinates>19.072909,50.828792</coordinates>
      </Point>
    </Placemark>
    <Placemark>
      <name>WRĘCZYCKA (4)</name>
      <Point>
        <coordinates>19.081278,50.82215</coordinates>
      </Point>
    </Placemark>
    <Placemark>
      <name>CMENTARZ ŚW. ROCHA (5)</name>
      <Point>
        <coordinates>19.086996,50.819222</coordinates>
      </Point>
    </Placemark>
    <Placemark>
      <name>ŚW. KRZYSZTOFA (6)</name>
      <Point>
        <coordinates>19.088316,50.822638</coordinates>
      </Point>
    </Placemark>
    <Placemark>
      <name>OKULICKIEGO (7)</name>
      <Point>
        <coordinates>19.093423,50.82478</coordinates>
      </Point>
    </Placemark>
    <Placemark>
      <name>NOWOBIALSKA (8)</name>
      <Point>
        <coordinates>19.088037,50.829334</coordinates>
      </Point>
    </Placemark>
    <Placemark>
      <name>PARKITKA - SZPITAL (9)</name>
      <Point>
        <coordinates>19.088616,50.82871</coordinates>
      </Point>
    </Placemark>
    <Placemark>
      <name>PARKITKA - OSIEDLE (10)</name>
      <Point>
        <coordinates>19.093573,50.824102</coordinates>
      </Point>
    </Placemark>
    <Placemark>
      <name>ŁÓDZKA (11)</name>
      <Point>
        <coordinates>19.100461,50.823831</coordinates>
      </Point>
    </Placemark>
    <Placemark>
      <name>MARKET OBI (12)</name>
      <Point>
        <coordinates>19.104559,50.823939</coordinates>
      </Point>
    </Placemark>
    <Placemark>
      <name>DOMY STUDENCKIE (13)</name>
      <Point>
        <coordinates>19.110546,50.824156</coordinates>
      </Point>
    </Placemark>
    <Placemark>
      <name>HALA POLONIA (14)</name>
      <Point>
        <coordinates>19.116898,50.825593</coordinates>
      </Point>
    </Placemark>
    <Placemark>
      <name>KIEDRZYŃSKA (15)</name>
      <Point>
        <coordinates>19.122906,50.826718</coordinates>
      </Point>
    </Placemark>
    <Placemark>
      <name>KURPIŃSKIEGO (16)</name>
      <Point>
        <coordinates>19.119709,50.830703</coordinates>
      </Point>
    </Placemark>
    <Placemark>
      <name>PROMENADA NIEMENA (17)</name>
      <Point>
        <coordinates>19.11664,50.833671</coordinates>
      </Point>
    </Placemark>
    <Placemark>
      <name>IWASZKIEWICZA (18)</name>
      <Point>
        <coordinates>19.120857,50.837092</coordinates>
      </Point>
    </Placemark>
    <Placemark>
      <name>SCHILLERA (19)</name>
      <Point>
        <coordinates>19.119623,50.842601</coordinates>
      </Point>
    </Placemark>
    <Placemark>
      <name>MICHAŁOWSKIEGO (20)</name>
      <Point>
        <coordinates>19.126339,50.844877</coordinates>
      </Point>
    </Placemark>
    <Placemark>
      <name>STARZYŃSKIEGO (21)</name>
      <Point>
        <coordinates>19.13018,50.846381</coordinates>
      </Point>
    </Placemark>
    <Placemark>
      <name>KOSMOWSKIEJ (22)</name>
      <Point>
        <coordinates>19.138098,50.84447</coordinates>
      </Point>
    </Placemark>
    <Placemark>
      <name>WITOSA (23)</name>
      <Point>
        <coordinates>19.138677,50.841544</coordinates>
      </Point>
    </Placemark>
    <Placemark>
      <name>FIELDORFA-NILA (24)</name>
      <Point>
        <coordinates>19.129772,50.840284</coordinates>
      </Point>
    </Placemark>
    <Placemark>
      <name>GOMBROWICZA (25)</name>
      <Point>
        <coordinates>19.115889,50.831312</coordinates>
      </Point>
    </Placemark>
  </Document>
</kml>
