<?xml version="1.0" encoding="UTF-8"?>
<kml xmlns="http://earth.google.com/kml/2.2">
  <Document>
    <name>38_DŹBÓW</name>
    <LookAt>
      <latitude>50.817405</latitude>
      <longitude>19.118485</longitude>
      <range>5000000</range>
      <tilt>0</tilt>
      <heading>0</heading>
    </LookAt>
    <Placemark>
      <name>38 DŹBÓW</name>
      <LineString>
        <extrude>1</extrude>
        <tessellate>1</tessellate>
        <altitudeMode>absolute</altitudeMode>
        <coordinates>
          19.150908,50.787394,0
          19.148333,50.786377,1
          19.140415,50.783745,2
          19.13475,50.78247,3
          19.127305,50.784342,4
          19.117243,50.787164,5
          19.109302,50.788873,6
          19.101276,50.789388,7
          19.099903,50.785644,8
          19.098873,50.781981,9
          19.094238,50.77403,10
          19.097114,50.771534,11
          19.095054,50.766865,12
          19.093466,50.762604,13
          19.081793,50.75902,14
          19.077287,50.755667,15
          19.076815,50.7474,16
          19.077845,50.741289,17
          19.07939,50.734174,18
          19.07542,50.766933,19
          19.071965,50.765047,20
          19.0618593,50.760744,21
        </coordinates>
      </LineString>
    </Placemark>
    <Placemark>
      <name>RAKÓW - DWORZEC PKP (1)</name>
      <Point>
        <coordinates>19.150908,50.787394</coordinates>
      </Point>
    </Placemark>
    <Placemark>
      <name>PLAC ORLĄT LWOWSKICH (2)</name>
      <Point>
        <coordinates>19.148333,50.786377</coordinates>
      </Point>
    </Placemark>
    <Placemark>
      <name>PZU (3)</name>
      <Point>
        <coordinates>19.140415,50.783745</coordinates>
      </Point>
    </Placemark>
    <Placemark>
      <name>KASZTANOWA (4)</name>
      <Point>
        <coordinates>19.13475,50.78247</coordinates>
      </Point>
    </Placemark>
    <Placemark>
      <name>MAKRO (5)</name>
      <Point>
        <coordinates>19.127305,50.784342</coordinates>
      </Point>
    </Placemark>
    <Placemark>
      <name>DOJAZDOWA (6)</name>
      <Point>
        <coordinates>19.117243,50.787164</coordinates>
      </Point>
    </Placemark>
    <Placemark>
      <name>JAGIELLOŃSKA (7)</name>
      <Point>
        <coordinates>19.109302,50.788873</coordinates>
      </Point>
    </Placemark>
    <Placemark>
      <name>SABINOWSKA (8)</name>
      <Point>
        <coordinates>19.101276,50.789388</coordinates>
      </Point>
    </Placemark>
    <Placemark>
      <name>SZKOŁA STRAŻY POŻARNEJ (9)</name>
      <Point>
        <coordinates>19.099903,50.785644</coordinates>
      </Point>
    </Placemark>
    <Placemark>
      <name>HETMAŃSKA (10)</name>
      <Point>
        <coordinates>19.098873,50.781981</coordinates>
      </Point>
    </Placemark>
    <Placemark>
      <name>SABINÓW (11)</name>
      <Point>
        <coordinates>19.094238,50.77403</coordinates>
      </Point>
    </Placemark>
    <Placemark>
      <name>POSELSKA (12)</name>
      <Point>
        <coordinates>19.097114,50.771534</coordinates>
      </Point>
    </Placemark>
    <Placemark>
      <name>GRONOWA (13)</name>
      <Point>
        <coordinates>19.095054,50.766865</coordinates>
      </Point>
    </Placemark>
    <Placemark>
      <name>ZDROWA (14)</name>
      <Point>
        <coordinates>19.093466,50.762604</coordinates>
      </Point>
    </Placemark>
    <Placemark>
      <name>ZEGAROWA (15)</name>
      <Point>
        <coordinates>19.081793,50.75902</coordinates>
      </Point>
    </Placemark>
    <Placemark>
      <name>MALOWNICZA I (16)</name>
      <Point>
        <coordinates>19.077287,50.755667</coordinates>
      </Point>
    </Placemark>
    <Placemark>
      <name>MALOWNICZA II (17)</name>
      <Point>
        <coordinates>19.076815,50.7474</coordinates>
      </Point>
    </Placemark>
    <Placemark>
      <name>MALOWNICZA III (18)</name>
      <Point>
        <coordinates>19.077845,50.741289</coordinates>
      </Point>
    </Placemark>
    <Placemark>
      <name>MALOWNICZA (19)</name>
      <Point>
        <coordinates>19.07939,50.734174</coordinates>
      </Point>
    </Placemark>
    <Placemark>
      <name>RZECZNA (20)</name>
      <Point>
        <coordinates>19.07542,50.766933</coordinates>
      </Point>
    </Placemark>
    <Placemark>
      <name>POWSTAŃCÓW WARSZAWY (21)</name>
      <Point>
        <coordinates>19.071965,50.765047</coordinates>
      </Point>
    </Placemark>
    <Placemark>
      <name>DŹBÓW (22)</name>
      <Point>
        <coordinates>19.0618593,50.760744</coordinates>
      </Point>
    </Placemark>
  </Document>
</kml>
