<?xml version="1.0" encoding="UTF-8"?>
<kml xmlns="http://earth.google.com/kml/2.2">
  <Document>
    <name>68_NIERADA</name>
    <LookAt>
      <latitude>50.817405</latitude>
      <longitude>19.118485</longitude>
      <range>5000000</range>
      <tilt>0</tilt>
      <heading>0</heading>
    </LookAt>
    <Placemark>
      <name>68 NIERADA</name>
      <LineString>
        <extrude>1</extrude>
        <tessellate>1</tessellate>
        <altitudeMode>absolute</altitudeMode>
        <coordinates>
          19.122562,50.810653,0
          19.124824,50.811945,1
          19.127734,50.807562,2
          19.129139,50.802687,3
          19.132948,50.794,4
          19.132991,50.789741,5
          19.142025,50.783962,6
          19.143248,50.783745,7
          19.145908,50.78053,8
          19.14784,50.778318,9
          19.156401,50.772809,10
          19.165821,50.766974,11
          19.160832,50.760948,12
          19.15801,50.757527,13
          19.148998,50.74854,14
          19.152238,50.745499,15
          19.160714,50.736021,16
          19.162431,50.733169,17
          19.167795,50.724476,18
          19.162774,50.718879,19
          19.154234,50.713689,20
          19.154363,50.708553,21
          19.152346,50.704068,22
          19.1399,50.705047,23
          19.121704,50.7082,24
          19.116898,50.709504,25
          19.112778,50.708934,26
          19.099903,50.709558,27
          19.089775,50.708906,28
          19.083681,50.708961,29
          19.071665,50.708689,30
          19.057074,50.708906,31
          19.050808,50.708961,32
        </coordinates>
      </LineString>
    </Placemark>
    <Placemark>
      <name>PIŁSUDSKIEGO (1)</name>
      <Point>
        <coordinates>19.122562,50.810653</coordinates>
      </Point>
    </Placemark>
    <Placemark>
      <name>I AL. NAJŚWIĘTSZEJ MARYI PANNY (2)</name>
      <Point>
        <coordinates>19.124824,50.811945</coordinates>
      </Point>
    </Placemark>
    <Placemark>
      <name>MIELCZARSKIEGO (3)</name>
      <Point>
        <coordinates>19.127734,50.807562</coordinates>
      </Point>
    </Placemark>
    <Placemark>
      <name>MAŁA (4)</name>
      <Point>
        <coordinates>19.129139,50.802687</coordinates>
      </Point>
    </Placemark>
    <Placemark>
      <name>STROMA (5)</name>
      <Point>
        <coordinates>19.132948,50.794</coordinates>
      </Point>
    </Placemark>
    <Placemark>
      <name>PUSTA (6)</name>
      <Point>
        <coordinates>19.132991,50.789741</coordinates>
      </Point>
    </Placemark>
    <Placemark>
      <name>ESTAKADA (7)</name>
      <Point>
        <coordinates>19.142025,50.783962</coordinates>
      </Point>
    </Placemark>
    <Placemark>
      <name>C. H. JAGIELLOŃCZYCY (8)</name>
      <Point>
        <coordinates>19.143248,50.783745</coordinates>
      </Point>
    </Placemark>
    <Placemark>
      <name>OKRZEI (9)</name>
      <Point>
        <coordinates>19.145908,50.78053</coordinates>
      </Point>
    </Placemark>
    <Placemark>
      <name>MIRECKIEGO (10)</name>
      <Point>
        <coordinates>19.14784,50.778318</coordinates>
      </Point>
    </Placemark>
    <Placemark>
      <name>RAKOWSKA (11)</name>
      <Point>
        <coordinates>19.156401,50.772809</coordinates>
      </Point>
    </Placemark>
    <Placemark>
      <name>BUGAJSKA (12)</name>
      <Point>
        <coordinates>19.165821,50.766974</coordinates>
      </Point>
    </Placemark>
    <Placemark>
      <name>KOLEJOWA (13)</name>
      <Point>
        <coordinates>19.160832,50.760948</coordinates>
      </Point>
    </Placemark>
    <Placemark>
      <name>FABRYCZNA (14)</name>
      <Point>
        <coordinates>19.15801,50.757527</coordinates>
      </Point>
    </Placemark>
    <Placemark>
      <name>WRZOSOWA (15)</name>
      <Point>
        <coordinates>19.148998,50.74854</coordinates>
      </Point>
    </Placemark>
    <Placemark>
      <name>WRZOSOWA - SZKOŁA (16)</name>
      <Point>
        <coordinates>19.152238,50.745499</coordinates>
      </Point>
    </Placemark>
    <Placemark>
      <name>NOWA WIEŚ - AUCHAN (17)</name>
      <Point>
        <coordinates>19.160714,50.736021</coordinates>
      </Point>
    </Placemark>
    <Placemark>
      <name>NOWA WIEŚ - SKRZYŻOWANIE (18)</name>
      <Point>
        <coordinates>19.162431,50.733169</coordinates>
      </Point>
    </Placemark>
    <Placemark>
      <name>NOWA WIEŚ II (19)</name>
      <Point>
        <coordinates>19.167795,50.724476</coordinates>
      </Point>
    </Placemark>
    <Placemark>
      <name>POCZESNA KOŚCIÓŁ (20)</name>
      <Point>
        <coordinates>19.162774,50.718879</coordinates>
      </Point>
    </Placemark>
    <Placemark>
      <name>POCZESNA SZKOŁA (21)</name>
      <Point>
        <coordinates>19.154234,50.713689</coordinates>
      </Point>
    </Placemark>
    <Placemark>
      <name>POCZESNA PROSTA (22)</name>
      <Point>
        <coordinates>19.154363,50.708553</coordinates>
      </Point>
    </Placemark>
    <Placemark>
      <name>POCZESNA BOREK (23)</name>
      <Point>
        <coordinates>19.152346,50.704068</coordinates>
      </Point>
    </Placemark>
    <Placemark>
      <name>KOLONIA POCZESNA (24)</name>
      <Point>
        <coordinates>19.1399,50.705047</coordinates>
      </Point>
    </Placemark>
    <Placemark>
      <name>BARGŁY (25)</name>
      <Point>
        <coordinates>19.121704,50.7082</coordinates>
      </Point>
    </Placemark>
    <Placemark>
      <name>BARGŁY - OSP (26)</name>
      <Point>
        <coordinates>19.116898,50.709504</coordinates>
      </Point>
    </Placemark>
    <Placemark>
      <name>BARGŁY - SZYMCZYKI (27)</name>
      <Point>
        <coordinates>19.112778,50.708934</coordinates>
      </Point>
    </Placemark>
    <Placemark>
      <name>MICHAŁÓW (28)</name>
      <Point>
        <coordinates>19.099903,50.709558</coordinates>
      </Point>
    </Placemark>
    <Placemark>
      <name>NIERADA - TARGOWA I (29)</name>
      <Point>
        <coordinates>19.089775,50.708906</coordinates>
      </Point>
    </Placemark>
    <Placemark>
      <name>NIERADA - KOŚCIÓŁ (30)</name>
      <Point>
        <coordinates>19.083681,50.708961</coordinates>
      </Point>
    </Placemark>
    <Placemark>
      <name>NIERADA - SKRZYŻOWANIE (31)</name>
      <Point>
        <coordinates>19.071665,50.708689</coordinates>
      </Point>
    </Placemark>
    <Placemark>
      <name>NIERADA - TARGOWA II (32)</name>
      <Point>
        <coordinates>19.057074,50.708906</coordinates>
      </Point>
    </Placemark>
    <Placemark>
      <name>NIERADA (33)</name>
      <Point>
        <coordinates>19.050808,50.708961</coordinates>
      </Point>
    </Placemark>
  </Document>
</kml>
