<?xml version="1.0" encoding="UTF-8"?>
<kml xmlns="http://earth.google.com/kml/2.2">
  <Document>
    <name>35 GAZOWNIA</name>
    <LookAt>
      <latitude>50.817405</latitude>
      <longitude>19.118485</longitude>
      <range>5000000</range>
      <tilt>0</tilt>
      <heading>0</heading>
    </LookAt>
    <Placemark>
      <name>35 GAZOWNIA</name>
      <LineString>
        <extrude>1</extrude>
        <tessellate>1</tessellate>
        <altitudeMode>absolute</altitudeMode>
        <coordinates>
          19.196548,50.798151,1
          19.159641,50.801216,2
          19.176228,50.80683,3
          19.167323,50.807481,4
          19.154663,50.806884,5
          19.149063,50.807752,6
          19.143763,50.807128,7
          19.1381783,50.805074,8
          19.132948,50.794,9
          19.132991,50.789741,10
          19.142025,50.783962,11
          19.143248,50.783745,12
          19.145908,50.78053,13
          19.148698,50.776201,14
          19.1505,50.772266,15
          19.150887,50.770597,16
          19.156895,50.778128,17
          19.155865,50.784451,18
          19.153891,50.784423,19
          19.148333,50.786377,20
          19.16419,50.807236,21
          19.171743,50.810653,22
        </coordinates>
      </LineString>
    </Placemark>
    <Placemark>
      <name>LEGIONÓW (1)</name>
      <Point>
        <coordinates>19.196548,50.798151</coordinates>
      </Point>
    </Placemark>
    <Placemark>
      <name>BERGER (2)</name>
      <Point>
        <coordinates>19.159641,50.801216</coordinates>
      </Point>
    </Placemark>
    <Placemark>
      <name>KOKSOWNIA (3)</name>
      <Point>
        <coordinates>19.176228,50.80683</coordinates>
      </Point>
    </Placemark>
    <Placemark>
      <name>HALLERA (4)</name>
      <Point>
        <coordinates>19.167323,50.807481</coordinates>
      </Point>
    </Placemark>
    <Placemark>
      <name>ZŁOTA (5)</name>
      <Point>
        <coordinates>19.154663,50.806884</coordinates>
      </Point>
    </Placemark>
    <Placemark>
      <name>WSPÓLNA (6)</name>
      <Point>
        <coordinates>19.149063,50.807752</coordinates>
      </Point>
    </Placemark>
    <Placemark>
      <name>FARADAYA (7)</name>
      <Point>
        <coordinates>19.143763,50.807128</coordinates>
      </Point>
    </Placemark>
    <Placemark>
      <name>II URZĄD SKARBOWY (8)</name>
      <Point>
        <coordinates>19.1381783,50.805074</coordinates>
      </Point>
    </Placemark>
    <Placemark>
      <name>STROMA (9)</name>
      <Point>
        <coordinates>19.132948,50.794</coordinates>
      </Point>
    </Placemark>
    <Placemark>
      <name>PUSTA (10)</name>
      <Point>
        <coordinates>19.132991,50.789741</coordinates>
      </Point>
    </Placemark>
    <Placemark>
      <name>ESTAKADA (11)</name>
      <Point>
        <coordinates>19.142025,50.783962</coordinates>
      </Point>
    </Placemark>
    <Placemark>
      <name>C. H. JAGIELLOŃCZYCY (12)</name>
      <Point>
        <coordinates>19.143248,50.783745</coordinates>
      </Point>
    </Placemark>
    <Placemark>
      <name>OKRZEI (13)</name>
      <Point>
        <coordinates>19.145908,50.78053</coordinates>
      </Point>
    </Placemark>
    <Placemark>
      <name>CMENTARZ RAKÓW (14)</name>
      <Point>
        <coordinates>19.148698,50.776201</coordinates>
      </Point>
    </Placemark>
    <Placemark>
      <name>BIENIA (15)</name>
      <Point>
        <coordinates>19.1505,50.772266</coordinates>
      </Point>
    </Placemark>
    <Placemark>
      <name>BOHATERÓW KATYNIA (16)</name>
      <Point>
        <coordinates>19.150887,50.770597</coordinates>
      </Point>
    </Placemark>
    <Placemark>
      <name>STADION RAKÓW (17)</name>
      <Point>
        <coordinates>19.156895,50.778128</coordinates>
      </Point>
    </Placemark>
    <Placemark>
      <name>STARY RAKÓW (18)</name>
      <Point>
        <coordinates>19.155865,50.784451</coordinates>
      </Point>
    </Placemark>
    <Placemark>
      <name>PRUSA (19)</name>
      <Point>
        <coordinates>19.153891,50.784423</coordinates>
      </Point>
    </Placemark>
    <Placemark>
      <name>PLAC ORLĄT LWOWSKICH (20)</name>
      <Point>
        <coordinates>19.148333,50.786377</coordinates>
      </Point>
    </Placemark>
    <Placemark>
      <name>URZĄD CELNY (21)</name>
      <Point>
        <coordinates>19.16419,50.807236</coordinates>
      </Point>
    </Placemark>
    <Placemark>
      <name>GAZOWNIA (22)</name>
      <Point>
        <coordinates>19.171743,50.810653</coordinates>
      </Point>
    </Placemark>
  </Document>
</kml>
