<?xml version="1.0" encoding="UTF-8"?>
<kml xmlns="http://earth.google.com/kml/2.2">
  <Document>
    <name>28 KUCELIN - SZPITAL</name>
    <LookAt>
      <latitude>50.817405</latitude>
      <longitude>19.118485</longitude>
      <range>5000000</range>
      <tilt>0</tilt>
      <heading>0</heading>
    </LookAt>
    <Placemark>
      <name>28 KUCELIN - SZPITAL</name>
      <LineString>
        <extrude>1</extrude>
        <tessellate>1</tessellate>
        <altitudeMode>absolute</altitudeMode>
        <coordinates>
          19.088616,50.82871,1
          19.088037,50.829334,2
          19.093423,50.82478,3
          19.093573,50.824102,4
          19.100461,50.823831,5
          19.104559,50.823939,6
          19.110546,50.824156,7
          19.116898,50.825593,8
          19.117842,50.821147,9
          19.118099,50.817649,10
          19.13003,50.818205,11
          19.127047,50.811623,12
          19.132175,50.811711,13
          19.13887,50.812728,14
          19.142132,50.808809,15
          19.143763,50.807128,16
          19.144707,50.806287,17
          19.150028,50.80127,18
          19.157624,50.793492,19
          19.160414,50.791613,20
          19.173417,50.790582,21
        </coordinates>
      </LineString>
    </Placemark>
    <Placemark>
      <name>PARKITKA - SZPITAL (1)</name>
      <Point>
        <coordinates>19.088616,50.82871</coordinates>
      </Point>
    </Placemark>
    <Placemark>
      <name>NOWOBIALSKA (2)</name>
      <Point>
        <coordinates>19.088037,50.829334</coordinates>
      </Point>
    </Placemark>
    <Placemark>
      <name>OKULICKIEGO (3)</name>
      <Point>
        <coordinates>19.093423,50.82478</coordinates>
      </Point>
    </Placemark>
    <Placemark>
      <name>PARKITKA - OSIEDLE (4)</name>
      <Point>
        <coordinates>19.093573,50.824102</coordinates>
      </Point>
    </Placemark>
    <Placemark>
      <name>ŁÓDZKA (5)</name>
      <Point>
        <coordinates>19.100461,50.823831</coordinates>
      </Point>
    </Placemark>
    <Placemark>
      <name>MARKET OBI (6)</name>
      <Point>
        <coordinates>19.104559,50.823939</coordinates>
      </Point>
    </Placemark>
    <Placemark>
      <name>DOMY STUDENCKIE (7)</name>
      <Point>
        <coordinates>19.110546,50.824156</coordinates>
      </Point>
    </Placemark>
    <Placemark>
      <name>HALA POLONIA (8)</name>
      <Point>
        <coordinates>19.116898,50.825593</coordinates>
      </Point>
    </Placemark>
    <Placemark>
      <name>POLITECHNIKA (9)</name>
      <Point>
        <coordinates>19.117842,50.821147</coordinates>
      </Point>
    </Placemark>
    <Placemark>
      <name>ALEJA JANA PAWŁA II (10)</name>
      <Point>
        <coordinates>19.118099,50.817649</coordinates>
      </Point>
    </Placemark>
    <Placemark>
      <name>RONDO TRZECH KRZYŻY (11)</name>
      <Point>
        <coordinates>19.13003,50.818205</coordinates>
      </Point>
    </Placemark>
    <Placemark>
      <name>PLAC DASZYŃSKIEGO (12)</name>
      <Point>
        <coordinates>19.127047,50.811623</coordinates>
      </Point>
    </Placemark>
    <Placemark>
      <name>ZAWODZIE - SZPITAL (13)</name>
      <Point>
        <coordinates>19.132175,50.811711</coordinates>
      </Point>
    </Placemark>
    <Placemark>
      <name>RYNEK NARUTOWICZA (14)</name>
      <Point>
        <coordinates>19.13887,50.812728</coordinates>
      </Point>
    </Placemark>
    <Placemark>
      <name>WOLNA (15)</name>
      <Point>
        <coordinates>19.142132,50.808809</coordinates>
      </Point>
    </Placemark>
    <Placemark>
      <name>FARADAYA (16)</name>
      <Point>
        <coordinates>19.143763,50.807128</coordinates>
      </Point>
    </Placemark>
    <Placemark>
      <name>ORLIK-RUCKEMANNA (17)</name>
      <Point>
        <coordinates>19.144707,50.806287</coordinates>
      </Point>
    </Placemark>
    <Placemark>
      <name>STADION MIEJSKI (18)</name>
      <Point>
        <coordinates>19.150028,50.80127</coordinates>
      </Point>
    </Placemark>
    <Placemark>
      <name>HUTNIKÓW (19)</name>
      <Point>
        <coordinates>19.157624,50.793492</coordinates>
      </Point>
    </Placemark>
    <Placemark>
      <name>DĄBIE (20)</name>
      <Point>
        <coordinates>19.160414,50.791613</coordinates>
      </Point>
    </Placemark>
    <Placemark>
      <name>KUCELIN - SZPITAL (21)</name>
      <Point>
        <coordinates>19.173417,50.790582</coordinates>
      </Point>
    </Placemark>
  </Document>
</kml>
