<?xml version="1.0" encoding="UTF-8"?>
<kml xmlns="http://earth.google.com/kml/2.2">
  <Document>
    <name>13 KIEDRZYN</name>
    <LookAt>
      <latitude>50.817405</latitude>
      <longitude>19.118485</longitude>
      <range>5000000</range>
      <tilt>0</tilt>
      <heading>0</heading>
    </LookAt>
    <Placemark>
      <name>13 KIEDRZYN</name>
      <LineString>
        <extrude>1</extrude>
        <tessellate>1</tessellate>
        <altitudeMode>absolute</altitudeMode>
        <coordinates>
          19.191999,50.776174,1
          19.187365,50.784478,2
          19.189811,50.783419,3
          19.185047,50.785739,4
          19.173417,50.790582,5
          19.164813,50.796306,6
          19.16374,50.799249,7
          19.158311,50.800131,8
          19.150028,50.80127,9
          19.144707,50.806287,10
          19.143763,50.807128,11
          19.142132,50.808809,12
          19.13887,50.812728,13
          19.132175,50.811711,14
          19.127047,50.811623,15
          19.118571,50.811772,16
          19.118099,50.817649,17
          19.114108,50.819357,18
          19.110546,50.824156,19
          19.110889,50.827843,20
          19.110342,50.82993,21
          19.11664,50.833671,22
          19.114301,50.837438,23
          19.108872,50.850445,24
          19.109302,50.852396,25
          19.108958,50.856189,26
        </coordinates>
      </LineString>
    </Placemark>
    <Placemark>
      <name>WALCOWNIA (1)</name>
      <Point>
        <coordinates>19.191999,50.776174</coordinates>
      </Point>
    </Placemark>
    <Placemark>
      <name>GUARDIAN (2)</name>
      <Point>
        <coordinates>19.187365,50.784478</coordinates>
      </Point>
    </Placemark>
    <Placemark>
      <name>KORFANTEGO I (3)</name>
      <Point>
        <coordinates>19.189811,50.783419</coordinates>
      </Point>
    </Placemark>
    <Placemark>
      <name>KORFANTEGO (4)</name>
      <Point>
        <coordinates>19.185047,50.785739</coordinates>
      </Point>
    </Placemark>
    <Placemark>
      <name>KUCELIN - SZPITAL (5)</name>
      <Point>
        <coordinates>19.173417,50.790582</coordinates>
      </Point>
    </Placemark>
    <Placemark>
      <name>SZPITALNA (6)</name>
      <Point>
        <coordinates>19.164813,50.796306</coordinates>
      </Point>
    </Placemark>
    <Placemark>
      <name>ŁANOWA (7)</name>
      <Point>
        <coordinates>19.16374,50.799249</coordinates>
      </Point>
    </Placemark>
    <Placemark>
      <name>CHŁODNA (8)</name>
      <Point>
        <coordinates>19.158311,50.800131</coordinates>
      </Point>
    </Placemark>
    <Placemark>
      <name>STADION MIEJSKI (9)</name>
      <Point>
        <coordinates>19.150028,50.80127</coordinates>
      </Point>
    </Placemark>
    <Placemark>
      <name>ORLIK-RUCKEMANNA (10)</name>
      <Point>
        <coordinates>19.144707,50.806287</coordinates>
      </Point>
    </Placemark>
    <Placemark>
      <name>FARADAYA (11)</name>
      <Point>
        <coordinates>19.143763,50.807128</coordinates>
      </Point>
    </Placemark>
    <Placemark>
      <name>WOLNA (12)</name>
      <Point>
        <coordinates>19.142132,50.808809</coordinates>
      </Point>
    </Placemark>
    <Placemark>
      <name>RYNEK NARUTOWICZA (13)</name>
      <Point>
        <coordinates>19.13887,50.812728</coordinates>
      </Point>
    </Placemark>
    <Placemark>
      <name>ZAWODZIE - SZPITAL (14)</name>
      <Point>
        <coordinates>19.132175,50.811711</coordinates>
      </Point>
    </Placemark>
    <Placemark>
      <name>PLAC DASZYŃSKIEGO (15)</name>
      <Point>
        <coordinates>19.127047,50.811623</coordinates>
      </Point>
    </Placemark>
    <Placemark>
      <name>II AL. NAJŚWIĘTSZEJ MARYI PANNY (16)</name>
      <Point>
        <coordinates>19.118571,50.811772</coordinates>
      </Point>
    </Placemark>
    <Placemark>
      <name>ALEJA JANA PAWŁA II (17)</name>
      <Point>
        <coordinates>19.118099,50.817649</coordinates>
      </Point>
    </Placemark>
    <Placemark>
      <name>SKRZYNECKIEGO (18)</name>
      <Point>
        <coordinates>19.114108,50.819357</coordinates>
      </Point>
    </Placemark>
    <Placemark>
      <name>DOMY STUDENCKIE (19)</name>
      <Point>
        <coordinates>19.110546,50.824156</coordinates>
      </Point>
    </Placemark>
    <Placemark>
      <name>BRONIEWSKIEGO (20)</name>
      <Point>
        <coordinates>19.110889,50.827843</coordinates>
      </Point>
    </Placemark>
    <Placemark>
      <name>TYSIĄCLECIE - SZPITAL (21)</name>
      <Point>
        <coordinates>19.110342,50.82993</coordinates>
      </Point>
    </Placemark>
    <Placemark>
      <name>PROMENADA NIEMENA (22)</name>
      <Point>
        <coordinates>19.11664,50.833671</coordinates>
      </Point>
    </Placemark>
    <Placemark>
      <name>CENTRUM HANDLOWE M1 (23)</name>
      <Point>
        <coordinates>19.114301,50.837438</coordinates>
      </Point>
    </Placemark>
    <Placemark>
      <name>LUDOWA (24)</name>
      <Point>
        <coordinates>19.108872,50.850445</coordinates>
      </Point>
    </Placemark>
    <Placemark>
      <name>NARCYZOWA (25)</name>
      <Point>
        <coordinates>19.109302,50.852396</coordinates>
      </Point>
    </Placemark>
    <Placemark>
      <name>KIEDRZYN (26)</name>
      <Point>
        <coordinates>19.108958,50.856189</coordinates>
      </Point>
    </Placemark>
  </Document>
</kml>
