<?xml version="1.0" encoding="UTF-8"?>
<kml xmlns="http://earth.google.com/kml/2.2">
  <Document>
    <name>14B KORKOWA</name>
    <LookAt>
      <latitude>50.817405</latitude>
      <longitude>19.118485</longitude>
      <range>5000000</range>
      <tilt>0</tilt>
      <heading>0</heading>
    </LookAt>
    <Placemark>
      <name>14B KORKOWA</name>
      <LineString>
        <extrude>1</extrude>
        <tessellate>1</tessellate>
        <altitudeMode>absolute</altitudeMode>
        <coordinates>
          19.118325,50.808714,1
          19.118993,50.806267,2
          19.11804,50.801226,3
          19.115632,50.799344,4
          19.1085723,50.795709,5
          19.103336,50.795845,6
          19.101276,50.789388,7
          19.099903,50.785644,8
          19.098873,50.781981,9
          19.094238,50.77403,10
          19.097114,50.771534,11
          19.095054,50.766865,12
          19.093852,50.757894,13
          19.094024,50.758749,14
          19.093723,50.751282,15
          19.086857,50.733793,16
          19.107563,50.761172,17
          19.107971,50.761728,18
          19.109559,50.763662,19
        </coordinates>
      </LineString>
    </Placemark>
    <Placemark>
      <name>DWORZEC GŁÓWNY PKP (1)</name>
      <Point>
        <coordinates>19.118325,50.808714</coordinates>
      </Point>
    </Placemark>
    <Placemark>
      <name>DWORZEC PKS (2)</name>
      <Point>
        <coordinates>19.118993,50.806267</coordinates>
      </Point>
    </Placemark>
    <Placemark>
      <name>RONDO MICKIEWICZA  (3)</name>
      <Point>
        <coordinates>19.11804,50.801226</coordinates>
      </Point>
    </Placemark>
    <Placemark>
      <name>1 MAJA - UCZELNIA (4)</name>
      <Point>
        <coordinates>19.115632,50.799344</coordinates>
      </Point>
    </Placemark>
    <Placemark>
      <name>AL. BOHATERÓW MONTE CASSINO (5)</name>
      <Point>
        <coordinates>19.1085723,50.795709</coordinates>
      </Point>
    </Placemark>
    <Placemark>
      <name>PIASTOWSKA (6)</name>
      <Point>
        <coordinates>19.103336,50.795845</coordinates>
      </Point>
    </Placemark>
    <Placemark>
      <name>SABINOWSKA (7)</name>
      <Point>
        <coordinates>19.101276,50.789388</coordinates>
      </Point>
    </Placemark>
    <Placemark>
      <name>SZKOŁA STRAŻY POŻARNEJ (8)</name>
      <Point>
        <coordinates>19.099903,50.785644</coordinates>
      </Point>
    </Placemark>
    <Placemark>
      <name>HETMAŃSKA (9)</name>
      <Point>
        <coordinates>19.098873,50.781981</coordinates>
      </Point>
    </Placemark>
    <Placemark>
      <name>SABINÓW (10)</name>
      <Point>
        <coordinates>19.094238,50.77403</coordinates>
      </Point>
    </Placemark>
    <Placemark>
      <name>POSELSKA (11)</name>
      <Point>
        <coordinates>19.097114,50.771534</coordinates>
      </Point>
    </Placemark>
    <Placemark>
      <name>GRONOWA (12)</name>
      <Point>
        <coordinates>19.095054,50.766865</coordinates>
      </Point>
    </Placemark>
    <Placemark>
      <name>LISIA (13)</name>
      <Point>
        <coordinates>19.093852,50.757894</coordinates>
      </Point>
    </Placemark>
    <Placemark>
      <name>ŻYZNA (14)</name>
      <Point>
        <coordinates>19.094024,50.758749</coordinates>
      </Point>
    </Placemark>
    <Placemark>
      <name>BRZEZINY (15)</name>
      <Point>
        <coordinates>19.093723,50.751282</coordinates>
      </Point>
    </Placemark>
    <Placemark>
      <name>KOLONIA BRZEZINY (16)</name>
      <Point>
        <coordinates>19.086857,50.733793</coordinates>
      </Point>
    </Placemark>
    <Placemark>
      <name>KORKOWA I (17)</name>
      <Point>
        <coordinates>19.107563,50.761172</coordinates>
      </Point>
    </Placemark>
    <Placemark>
      <name>KORKOWA II (18)</name>
      <Point>
        <coordinates>19.107971,50.761728</coordinates>
      </Point>
    </Placemark>
    <Placemark>
      <name>KORKOWA (19)</name>
      <Point>
        <coordinates>19.109559,50.763662</coordinates>
      </Point>
    </Placemark>
  </Document>
</kml>
