<?xml version="1.0" encoding="UTF-8"?>
<kml xmlns="http://earth.google.com/kml/2.2">
  <Document>
    <name>rozklad.czest.pl</name>
    <LookAt>
      <latitude>50.817405</latitude>
      <longitude>19.118485</longitude>
      <range>5000000</range>
      <tilt>0</tilt>
      <heading>0</heading>
    </LookAt>
    <Placemark>
      <name>1 MAJA - UCZELNIA</name>
      <Point>
        <coordinates>19.115632,50.799344</coordinates>
      </Point>
    </Placemark>
    <Placemark>
      <name>AL. BOHATERÓW MONTE CASSINO</name>
      <Point>
        <coordinates>19.1085723,50.795709</coordinates>
      </Point>
    </Placemark>
    <Placemark>
      <name>ALEJA JANA PAWŁA II</name>
      <Point>
        <coordinates>19.118099,50.817649</coordinates>
      </Point>
    </Placemark>
    <Placemark>
      <name>ANIOŁOWSKA</name>
      <Point>
        <coordinates>19.136639,50.827192</coordinates>
      </Point>
    </Placemark>
    <Placemark>
      <name>ARCHIWUM PAŃSTWOWE</name>
      <Point>
        <coordinates>19.134665,50.795085</coordinates>
      </Point>
    </Placemark>
    <Placemark>
      <name>ARTYLERYJSKA</name>
      <Point>
        <coordinates>19.086084,50.78597</coordinates>
      </Point>
    </Placemark>
    <Placemark>
      <name>BACEWICZ</name>
      <Point>
        <coordinates>19.126854,50.843888</coordinates>
      </Point>
    </Placemark>
    <Placemark>
      <name>BACZYŃSKIEGO</name>
      <Point>
        <coordinates>19.124622,50.837817</coordinates>
      </Point>
    </Placemark>
    <Placemark>
      <name>BARGŁY</name>
      <Point>
        <coordinates>19.121704,50.7082</coordinates>
      </Point>
    </Placemark>
    <Placemark>
      <name>BARGŁY - OSP</name>
      <Point>
        <coordinates>19.116898,50.709504</coordinates>
      </Point>
    </Placemark>
    <Placemark>
      <name>BARGŁY - SZYMCZYKI</name>
      <Point>
        <coordinates>19.112778,50.708934</coordinates>
      </Point>
    </Placemark>
    <Placemark>
      <name>BATALIONÓW CHŁOPSKICH</name>
      <Point>
        <coordinates>19.112778,50.708634</coordinates>
      </Point>
    </Placemark>
    <Placemark>
      <name>BATALIONÓW CHŁOPSKICH I</name>
      <Point>
        <coordinates>19.188652,50.837926</coordinates>
      </Point>
    </Placemark>
    <Placemark>
      <name>BERGER</name>
      <Point>
        <coordinates>19.159641,50.801216</coordinates>
      </Point>
    </Placemark>
    <Placemark>
      <name>BIAŁOSTOCKA</name>
      <Point>
        <coordinates>19.052181,50.82703</coordinates>
      </Point>
    </Placemark>
    <Placemark>
      <name>BIENIA</name>
      <Point>
        <coordinates>19.1505,50.772266</coordinates>
      </Point>
    </Placemark>
    <Placemark>
      <name>BISKUPICE</name>
      <Point>
        <coordinates>19.28641,50.705645</coordinates>
      </Point>
    </Placemark>
    <Placemark>
      <name>BISKUPICE I</name>
      <Point>
        <coordinates>19.261093,50.713852</coordinates>
      </Point>
    </Placemark>
    <Placemark>
      <name>BISKUPICE II</name>
      <Point>
        <coordinates>19.267015,50.711569</coordinates>
      </Point>
    </Placemark>
    <Placemark>
      <name>BISKUPICE III</name>
      <Point>
        <coordinates>19.276028,50.708526</coordinates>
      </Point>
    </Placemark>
    <Placemark>
      <name>BŁESZNO</name>
      <Point>
        <coordinates>19.151058,50.768942</coordinates>
      </Point>
    </Placemark>
    <Placemark>
      <name>BOHATERÓW KATYNIA</name>
      <Point>
        <coordinates>19.150887,50.770597</coordinates>
      </Point>
    </Placemark>
    <Placemark>
      <name>BÓR - WYPALANKI</name>
      <Point>
        <coordinates>19.118958,50.773488</coordinates>
      </Point>
    </Placemark>
    <Placemark>
      <name>BRONIEWSKIEGO</name>
      <Point>
        <coordinates>19.110889,50.827843</coordinates>
      </Point>
    </Placemark>
    <Placemark>
      <name>BRZEZINY</name>
      <Point>
        <coordinates>19.093723,50.751282</coordinates>
      </Point>
    </Placemark>
    <Placemark>
      <name>BRZOZOWA</name>
      <Point>
        <coordinates>19.143505,50.779892</coordinates>
      </Point>
    </Placemark>
    <Placemark>
      <name>BUGAJSKA</name>
      <Point>
        <coordinates>19.165821,50.766974</coordinates>
      </Point>
    </Placemark>
    <Placemark>
      <name>BUKOWA</name>
      <Point>
        <coordinates>19.129171,50.782443</coordinates>
      </Point>
    </Placemark>
    <Placemark>
      <name>BURSZTYNOWA</name>
      <Point>
        <coordinates>19.2138,50.805338</coordinates>
      </Point>
    </Placemark>
    <Placemark>
      <name>BURSZTYNOWA I</name>
      <Point>
        <coordinates>19.210367,50.806748</coordinates>
      </Point>
    </Placemark>
    <Placemark>
      <name>BUSOLOWA I</name>
      <Point>
        <coordinates>19.040594,50.78304</coordinates>
      </Point>
    </Placemark>
    <Placemark>
      <name>BUSOLOWA II</name>
      <Point>
        <coordinates>19.04068,50.778155</coordinates>
      </Point>
    </Placemark>
    <Placemark>
      <name>C. H. JAGIELLOŃCZYCY</name>
      <Point>
        <coordinates>19.143248,50.783745</coordinates>
      </Point>
    </Placemark>
    <Placemark>
      <name>CENTRUM HANDLOWE M1</name>
      <Point>
        <coordinates>19.114301,50.837438</coordinates>
      </Point>
    </Placemark>
    <Placemark>
      <name>CHŁODNA</name>
      <Point>
        <coordinates>19.158311,50.800131</coordinates>
      </Point>
    </Placemark>
    <Placemark>
      <name>CHŁOPSKA</name>
      <Point>
        <coordinates>19.041924,50.764585</coordinates>
      </Point>
    </Placemark>
    <Placemark>
      <name>CMENTARNA</name>
      <Point>
        <coordinates>19.133677,50.823668</coordinates>
      </Point>
    </Placemark>
    <Placemark>
      <name>CMENTARZ KOMUNALNY</name>
      <Point>
        <coordinates>19.0456583,50.830933</coordinates>
      </Point>
    </Placemark>
    <Placemark>
      <name>CMENTARZ MIRÓW</name>
      <Point>
        <coordinates>19.216375,50.821174</coordinates>
      </Point>
    </Placemark>
    <Placemark>
      <name>CMENTARZ RAKÓW</name>
      <Point>
        <coordinates>19.148698,50.776201</coordinates>
      </Point>
    </Placemark>
    <Placemark>
      <name>CMENTARZ ŚW. ROCHA</name>
      <Point>
        <coordinates>19.086996,50.819222</coordinates>
      </Point>
    </Placemark>
    <Placemark>
      <name>DĄBIE</name>
      <Point>
        <coordinates>19.160414,50.791613</coordinates>
      </Point>
    </Placemark>
    <Placemark>
      <name>DĄBROWSKIEGO - SĄDY</name>
      <Point>
        <coordinates>19.1118763,50.817134</coordinates>
      </Point>
    </Placemark>
    <Placemark>
      <name>DICKENSA</name>
      <Point>
        <coordinates>19.150929,50.833698</coordinates>
      </Point>
    </Placemark>
    <Placemark>
      <name>DOBRZYŃSKA</name>
      <Point>
        <coordinates>19.05673,50.813094</coordinates>
      </Point>
    </Placemark>
    <Placemark>
      <name>DOJAZDOWA</name>
      <Point>
        <coordinates>19.117243,50.787164</coordinates>
      </Point>
    </Placemark>
    <Placemark>
      <name>DOMY STUDENCKIE</name>
      <Point>
        <coordinates>19.110546,50.824156</coordinates>
      </Point>
    </Placemark>
    <Placemark>
      <name>DRZEWNA</name>
      <Point>
        <coordinates>19.019008,50.792345</coordinates>
      </Point>
    </Placemark>
    <Placemark>
      <name>DWORZEC GŁÓWNY PKP</name>
      <Point>
        <coordinates>19.118325,50.808714</coordinates>
      </Point>
    </Placemark>
    <Placemark>
      <name>DWORZEC PKS</name>
      <Point>
        <coordinates>19.118993,50.806267</coordinates>
      </Point>
    </Placemark>
    <Placemark>
      <name>DYBOWSKIEGO</name>
      <Point>
        <coordinates>19.1449643,50.852613</coordinates>
      </Point>
    </Placemark>
    <Placemark>
      <name>DŹBÓW</name>
      <Point>
        <coordinates>19.0618593,50.760744</coordinates>
      </Point>
    </Placemark>
    <Placemark>
      <name>ENERGETYKÓW</name>
      <Point>
        <coordinates>19.038792,50.794163</coordinates>
      </Point>
    </Placemark>
    <Placemark>
      <name>ESTAKADA</name>
      <Point>
        <coordinates>19.142025,50.783962</coordinates>
      </Point>
    </Placemark>
    <Placemark>
      <name>FABRYCZNA</name>
      <Point>
        <coordinates>19.15801,50.757527</coordinates>
      </Point>
    </Placemark>
    <Placemark>
      <name>FARADAYA</name>
      <Point>
        <coordinates>19.143763,50.807128</coordinates>
      </Point>
    </Placemark>
    <Placemark>
      <name>FIELDORFA-NILA</name>
      <Point>
        <coordinates>19.129772,50.840284</coordinates>
      </Point>
    </Placemark>
    <Placemark>
      <name>FIELDORFA-NILA - CMENTARZ-KULE</name>
      <Point>
        <coordinates>19.136188,50.830323</coordinates>
      </Point>
    </Placemark>
    <Placemark>
      <name>FILTROWA</name>
      <Point>
        <coordinates>19.180541,50.816673</coordinates>
      </Point>
    </Placemark>
    <Placemark>
      <name>GALERIA JURAJSKA</name>
      <Point>
        <coordinates>19.12783,50.807026</coordinates>
      </Point>
    </Placemark>
    <Placemark>
      <name>GAZOWNIA</name>
      <Point>
        <coordinates>19.171743,50.810653</coordinates>
      </Point>
    </Placemark>
    <Placemark>
      <name>GILOWA</name>
      <Point>
        <coordinates>19.160542,50.792698</coordinates>
      </Point>
    </Placemark>
    <Placemark>
      <name>GŁĘBOCKIEGO</name>
      <Point>
        <coordinates>19.137862,50.858221</coordinates>
      </Point>
    </Placemark>
    <Placemark>
      <name>GMINNA</name>
      <Point>
        <coordinates>19.056559,50.837546</coordinates>
      </Point>
    </Placemark>
    <Placemark>
      <name>GNASZYN</name>
      <Point>
        <coordinates>19.051666,50.796821</coordinates>
      </Point>
    </Placemark>
    <Placemark>
      <name>GNASZYN - DWORZEC PKP</name>
      <Point>
        <coordinates>19.028814,50.791952</coordinates>
      </Point>
    </Placemark>
    <Placemark>
      <name>GOMBROWICZA</name>
      <Point>
        <coordinates>19.115889,50.831312</coordinates>
      </Point>
    </Placemark>
    <Placemark>
      <name>GRABÓWKA</name>
      <Point>
        <coordinates>19.059863,50.837113</coordinates>
      </Point>
    </Placemark>
    <Placemark>
      <name>GRAFIKÓW</name>
      <Point>
        <coordinates>19.038877,50.789524</coordinates>
      </Point>
    </Placemark>
    <Placemark>
      <name>GRONOWA</name>
      <Point>
        <coordinates>19.095054,50.766865</coordinates>
      </Point>
    </Placemark>
    <Placemark>
      <name>GUARDIAN</name>
      <Point>
        <coordinates>19.187365,50.784478</coordinates>
      </Point>
    </Placemark>
    <Placemark>
      <name>HALA POLONIA</name>
      <Point>
        <coordinates>19.116898,50.825593</coordinates>
      </Point>
    </Placemark>
    <Placemark>
      <name>HALLERA</name>
      <Point>
        <coordinates>19.167323,50.807481</coordinates>
      </Point>
    </Placemark>
    <Placemark>
      <name>HETMAŃSKA</name>
      <Point>
        <coordinates>19.098873,50.781981</coordinates>
      </Point>
    </Placemark>
    <Placemark>
      <name>HOENE - WROŃSKIEGO</name>
      <Point>
        <coordinates>19.111034,50.799066</coordinates>
      </Point>
    </Placemark>
    <Placemark>
      <name>HUBERMANA</name>
      <Point>
        <coordinates>19.15525,50.836904</coordinates>
      </Point>
    </Placemark>
    <Placemark>
      <name>HUCULSKA</name>
      <Point>
        <coordinates>19.081071,50.804006</coordinates>
      </Point>
    </Placemark>
    <Placemark>
      <name>HUTA STARA "A"</name>
      <Point>
        <coordinates>19.127582,50.725916</coordinates>
      </Point>
    </Placemark>
    <Placemark>
      <name>HUTA STARA "A" - PSZENNA</name>
      <Point>
        <coordinates>19.135068,50.724769</coordinates>
      </Point>
    </Placemark>
    <Placemark>
      <name>HUTA STARA "B"</name>
      <Point>
        <coordinates>19.132256,50.737557</coordinates>
      </Point>
    </Placemark>
    <Placemark>
      <name>HUTA STARA "B" OSIEDLE</name>
      <Point>
        <coordinates>19.133259,50.739429</coordinates>
      </Point>
    </Placemark>
    <Placemark>
      <name>HUTNIKÓW</name>
      <Point>
        <coordinates>19.157624,50.793492</coordinates>
      </Point>
    </Placemark>
    <Placemark>
      <name>I AL. NAJŚWIĘTSZEJ MARYI PANNY</name>
      <Point>
        <coordinates>19.124824,50.811945</coordinates>
      </Point>
    </Placemark>
    <Placemark>
      <name>I URZĄD SKARBOWY</name>
      <Point>
        <coordinates>19.128874,50.828031</coordinates>
      </Point>
    </Placemark>
    <Placemark>
      <name>II AL. NAJŚWIĘTSZEJ MARYI PANNY</name>
      <Point>
        <coordinates>19.118571,50.811772</coordinates>
      </Point>
    </Placemark>
    <Placemark>
      <name>II URZĄD SKARBOWY</name>
      <Point>
        <coordinates>19.1381783,50.805074</coordinates>
      </Point>
    </Placemark>
    <Placemark>
      <name>III AL. NAJŚWIĘTSZEJ MARYI PANNY</name>
      <Point>
        <coordinates>19.104302,50.81216</coordinates>
      </Point>
    </Placemark>
    <Placemark>
      <name>IKARA I</name>
      <Point>
        <coordinates>19.060008,50.837621</coordinates>
      </Point>
    </Placemark>
    <Placemark>
      <name>IKARA II</name>
      <Point>
        <coordinates>19.060426,50.839098</coordinates>
      </Point>
    </Placemark>
    <Placemark>
      <name>IKARA III</name>
      <Point>
        <coordinates>19.062266,50.845134</coordinates>
      </Point>
    </Placemark>
    <Placemark>
      <name>IWASZKIEWICZA</name>
      <Point>
        <coordinates>19.120857,50.837092</coordinates>
      </Point>
    </Placemark>
    <Placemark>
      <name>JAGIELLOŃSKA</name>
      <Point>
        <coordinates>19.109302,50.788873</coordinates>
      </Point>
    </Placemark>
    <Placemark>
      <name>JASNA GÓRA</name>
      <Point>
        <coordinates>19.096888,50.810514</coordinates>
      </Point>
    </Placemark>
    <Placemark>
      <name>JASNOGÓRSKA</name>
      <Point>
        <coordinates>19.1184,50.815426</coordinates>
      </Point>
    </Placemark>
    <Placemark>
      <name>JESIENNA</name>
      <Point>
        <coordinates>19.139978,50.771106</coordinates>
      </Point>
    </Placemark>
    <Placemark>
      <name>JESIENNA - SZKOŁA</name>
      <Point>
        <coordinates>19.141515,50.770026</coordinates>
      </Point>
    </Placemark>
    <Placemark>
      <name>JEŻYNOWA</name>
      <Point>
        <coordinates>19.03221,50.788642</coordinates>
      </Point>
    </Placemark>
    <Placemark>
      <name>JURAJSKA</name>
      <Point>
        <coordinates>19.143714,50.819054</coordinates>
      </Point>
    </Placemark>
    <Placemark>
      <name>KANAŁ KOHNA</name>
      <Point>
        <coordinates>19.131038,50.802829</coordinates>
      </Point>
    </Placemark>
    <Placemark>
      <name>KARŁOWICZA</name>
      <Point>
        <coordinates>19.159899,50.842181</coordinates>
      </Point>
    </Placemark>
    <Placemark>
      <name>KARPACKA</name>
      <Point>
        <coordinates>19.05555,50.757385</coordinates>
      </Point>
    </Placemark>
    <Placemark>
      <name>KASZTANOWA</name>
      <Point>
        <coordinates>19.13475,50.78247</coordinates>
      </Point>
    </Placemark>
    <Placemark>
      <name>KASZUBSKA</name>
      <Point>
        <coordinates>19.069605,50.826704</coordinates>
      </Point>
    </Placemark>
    <Placemark>
      <name>KAWODRZA DOLNA</name>
      <Point>
        <coordinates>19.061537,50.798015</coordinates>
      </Point>
    </Placemark>
    <Placemark>
      <name>KAWODRZA GÓRNA</name>
      <Point>
        <coordinates>19.044521,50.783989</coordinates>
      </Point>
    </Placemark>
    <Placemark>
      <name>KAWODRZAŃSKA</name>
      <Point>
        <coordinates>19.079647,50.786051</coordinates>
      </Point>
    </Placemark>
    <Placemark>
      <name>KIEDRZYN</name>
      <Point>
        <coordinates>19.108958,50.856189</coordinates>
      </Point>
    </Placemark>
    <Placemark>
      <name>KIEDRZYŃSKA</name>
      <Point>
        <coordinates>19.122906,50.826718</coordinates>
      </Point>
    </Placemark>
    <Placemark>
      <name>KMICICA</name>
      <Point>
        <coordinates>19.093251,50.773623</coordinates>
      </Point>
    </Placemark>
    <Placemark>
      <name>KOKSOWNIA</name>
      <Point>
        <coordinates>19.176228,50.80683</coordinates>
      </Point>
    </Placemark>
    <Placemark>
      <name>KOLEJOWA</name>
      <Point>
        <coordinates>19.160832,50.760948</coordinates>
      </Point>
    </Placemark>
    <Placemark>
      <name>KOLONIA BOREK</name>
      <Point>
        <coordinates>19.173717,50.692298</coordinates>
      </Point>
    </Placemark>
    <Placemark>
      <name>KOLONIA BRZEZINY</name>
      <Point>
        <coordinates>19.086857,50.733793</coordinates>
      </Point>
    </Placemark>
    <Placemark>
      <name>KOLONIA POCZESNA</name>
      <Point>
        <coordinates>19.1399,50.705047</coordinates>
      </Point>
    </Placemark>
    <Placemark>
      <name>KOŁAKOWSKIEGO</name>
      <Point>
        <coordinates>19.110053,50.833061</coordinates>
      </Point>
    </Placemark>
    <Placemark>
      <name>KOMENDA MIEJSKA POLICJI</name>
      <Point>
        <coordinates>19.103894,50.81711</coordinates>
      </Point>
    </Placemark>
    <Placemark>
      <name>KOMORNICKA</name>
      <Point>
        <coordinates>19.171486,50.819981</coordinates>
      </Point>
    </Placemark>
    <Placemark>
      <name>KONIECPOLSKA</name>
      <Point>
        <coordinates>19.054413,50.81933</coordinates>
      </Point>
    </Placemark>
    <Placemark>
      <name>KONWALIOWA I</name>
      <Point>
        <coordinates>19.069219,50.785699</coordinates>
      </Point>
    </Placemark>
    <Placemark>
      <name>KONWALIOWA II</name>
      <Point>
        <coordinates>19.063082,50.785183</coordinates>
      </Point>
    </Placemark>
    <Placemark>
      <name>KONWALIOWA III</name>
      <Point>
        <coordinates>19.053597,50.784586</coordinates>
      </Point>
    </Placemark>
    <Placemark>
      <name>KOPALNIANA I</name>
      <Point>
        <coordinates>19.055443,50.768792</coordinates>
      </Point>
    </Placemark>
    <Placemark>
      <name>KOPALNIANA II</name>
      <Point>
        <coordinates>19.053726,50.762332</coordinates>
      </Point>
    </Placemark>
    <Placemark>
      <name>KOPERNIKA</name>
      <Point>
        <coordinates>19.112145,50.807914</coordinates>
      </Point>
    </Placemark>
    <Placemark>
      <name>KORCZAKA</name>
      <Point>
        <coordinates>19.112295,50.805263</coordinates>
      </Point>
    </Placemark>
    <Placemark>
      <name>KORDECKIEGO</name>
      <Point>
        <coordinates>19.08263,50.808945</coordinates>
      </Point>
    </Placemark>
    <Placemark>
      <name>KORFANTEGO</name>
      <Point>
        <coordinates>19.185047,50.785739</coordinates>
      </Point>
    </Placemark>
    <Placemark>
      <name>KORFANTEGO I</name>
      <Point>
        <coordinates>19.189811,50.783419</coordinates>
      </Point>
    </Placemark>
    <Placemark>
      <name>KORKOWA</name>
      <Point>
        <coordinates>19.109559,50.763662</coordinates>
      </Point>
    </Placemark>
    <Placemark>
      <name>KORKOWA I</name>
      <Point>
        <coordinates>19.107563,50.761172</coordinates>
      </Point>
    </Placemark>
    <Placemark>
      <name>KORKOWA II</name>
      <Point>
        <coordinates>19.107971,50.761728</coordinates>
      </Point>
    </Placemark>
    <Placemark>
      <name>KORWINÓW</name>
      <Point>
        <coordinates>19.174147,50.734011</coordinates>
      </Point>
    </Placemark>
    <Placemark>
      <name>KOSMOWSKIEJ</name>
      <Point>
        <coordinates>19.138098,50.84447</coordinates>
      </Point>
    </Placemark>
    <Placemark>
      <name>KOŚCIELNA</name>
      <Point>
        <coordinates>19.096727,50.795438</coordinates>
      </Point>
    </Placemark>
    <Placemark>
      <name>KRAKOWSKA</name>
      <Point>
        <coordinates>19.130073,50.800971</coordinates>
      </Point>
    </Placemark>
    <Placemark>
      <name>KRĘCIWILK</name>
      <Point>
        <coordinates>19.182944,50.76335</coordinates>
      </Point>
    </Placemark>
    <Placemark>
      <name>KUCELIN - HUTA</name>
      <Point>
        <coordinates>19.176368,50.790596</coordinates>
      </Point>
    </Placemark>
    <Placemark>
      <name>KUCELIN - SZPITAL</name>
      <Point>
        <coordinates>19.173417,50.790582</coordinates>
      </Point>
    </Placemark>
    <Placemark>
      <name>KUKUCZKI</name>
      <Point>
        <coordinates>19.139707,50.83695</coordinates>
      </Point>
    </Placemark>
    <Placemark>
      <name>KURPIŃSKIEGO</name>
      <Point>
        <coordinates>19.119709,50.830703</coordinates>
      </Point>
    </Placemark>
    <Placemark>
      <name>KUSIĘTA I</name>
      <Point>
        <coordinates>19.233885,50.771154</coordinates>
      </Point>
    </Placemark>
    <Placemark>
      <name>KUSIĘTA II</name>
      <Point>
        <coordinates>19.240837,50.772022</coordinates>
      </Point>
    </Placemark>
    <Placemark>
      <name>KUSIĘTA III</name>
      <Point>
        <coordinates>19.252338,50.774085</coordinates>
      </Point>
    </Placemark>
    <Placemark>
      <name>KUSIĘTA IV</name>
      <Point>
        <coordinates>19.257059,50.775333</coordinates>
      </Point>
    </Placemark>
    <Placemark>
      <name>KUSIĘTA V</name>
      <Point>
        <coordinates>19.27371,50.776419</coordinates>
      </Point>
    </Placemark>
    <Placemark>
      <name>KUSIĘTA VI</name>
      <Point>
        <coordinates>19.274139,50.775387</coordinates>
      </Point>
    </Placemark>
    <Placemark>
      <name>KUSIĘTA VII</name>
      <Point>
        <coordinates>19.274912,50.769471</coordinates>
      </Point>
    </Placemark>
    <Placemark>
      <name>KUSOCIŃSKIEGO</name>
      <Point>
        <coordinates>19.111898,50.766295</coordinates>
      </Point>
    </Placemark>
    <Placemark>
      <name>LAKOWA</name>
      <Point>
        <coordinates>19.046474,50.771316</coordinates>
      </Point>
    </Placemark>
    <Placemark>
      <name>LEDNICKA</name>
      <Point>
        <coordinates>19.054595,50.830377</coordinates>
      </Point>
    </Placemark>
    <Placemark>
      <name>LEGIONÓW</name>
      <Point>
        <coordinates>19.196548,50.798151</coordinates>
      </Point>
    </Placemark>
    <Placemark>
      <name>LEŚNA</name>
      <Point>
        <coordinates>19.022784,50.761545</coordinates>
      </Point>
    </Placemark>
    <Placemark>
      <name>LISIA</name>
      <Point>
        <coordinates>19.093852,50.757894</coordinates>
      </Point>
    </Placemark>
    <Placemark>
      <name>LISZKA DOLNA</name>
      <Point>
        <coordinates>19.03995,50.771561</coordinates>
      </Point>
    </Placemark>
    <Placemark>
      <name>LOTOSU</name>
      <Point>
        <coordinates>19.050937,50.753631</coordinates>
      </Point>
    </Placemark>
    <Placemark>
      <name>LUDOWA</name>
      <Point>
        <coordinates>19.108872,50.850445</coordinates>
      </Point>
    </Placemark>
    <Placemark>
      <name>LWOWSKA</name>
      <Point>
        <coordinates>19.058522,50.80662</coordinates>
      </Point>
    </Placemark>
    <Placemark>
      <name>ŁANOWA</name>
      <Point>
        <coordinates>19.16374,50.799249</coordinates>
      </Point>
    </Placemark>
    <Placemark>
      <name>ŁĘCZYCKA</name>
      <Point>
        <coordinates>19.06482,50.820577</coordinates>
      </Point>
    </Placemark>
    <Placemark>
      <name>ŁOJKI</name>
      <Point>
        <coordinates>19.011583,50.78852</coordinates>
      </Point>
    </Placemark>
    <Placemark>
      <name>ŁÓDZKA</name>
      <Point>
        <coordinates>19.100461,50.823831</coordinates>
      </Point>
    </Placemark>
    <Placemark>
      <name>MAKRO</name>
      <Point>
        <coordinates>19.127305,50.784342</coordinates>
      </Point>
    </Placemark>
    <Placemark>
      <name>MAKUSZYŃSKIEGO</name>
      <Point>
        <coordinates>19.149299,50.848223</coordinates>
      </Point>
    </Placemark>
    <Placemark>
      <name>MALOWNICZA</name>
      <Point>
        <coordinates>19.07939,50.734174</coordinates>
      </Point>
    </Placemark>
    <Placemark>
      <name>MALOWNICZA I</name>
      <Point>
        <coordinates>19.077287,50.755667</coordinates>
      </Point>
    </Placemark>
    <Placemark>
      <name>MALOWNICZA II</name>
      <Point>
        <coordinates>19.076815,50.7474</coordinates>
      </Point>
    </Placemark>
    <Placemark>
      <name>MALOWNICZA III</name>
      <Point>
        <coordinates>19.077845,50.741289</coordinates>
      </Point>
    </Placemark>
    <Placemark>
      <name>MAŁA</name>
      <Point>
        <coordinates>19.129139,50.802687</coordinates>
      </Point>
    </Placemark>
    <Placemark>
      <name>MANGANOWA</name>
      <Point>
        <coordinates>19.154298,50.820537</coordinates>
      </Point>
    </Placemark>
    <Placemark>
      <name>MARKET OBI</name>
      <Point>
        <coordinates>19.104559,50.823939</coordinates>
      </Point>
    </Placemark>
    <Placemark>
      <name>MARUSARZA</name>
      <Point>
        <coordinates>19.128796,50.774967</coordinates>
      </Point>
    </Placemark>
    <Placemark>
      <name>MARYNARSKA</name>
      <Point>
        <coordinates>19.026775,50.787937</coordinates>
      </Point>
    </Placemark>
    <Placemark>
      <name>MATEJKI</name>
      <Point>
        <coordinates>19.097757,50.795601</coordinates>
      </Point>
    </Placemark>
    <Placemark>
      <name>MAZURY</name>
      <Point>
        <coordinates>19.086685,50.720373</coordinates>
      </Point>
    </Placemark>
    <Placemark>
      <name>MAZURY I</name>
      <Point>
        <coordinates>19.087157,50.722411</coordinates>
      </Point>
    </Placemark>
    <Placemark>
      <name>MELIORANTÓW</name>
      <Point>
        <coordinates>19.158161,50.871682</coordinates>
      </Point>
    </Placemark>
    <Placemark>
      <name>MICHAŁOWSKIEGO</name>
      <Point>
        <coordinates>19.126339,50.844877</coordinates>
      </Point>
    </Placemark>
    <Placemark>
      <name>MICHAŁÓW</name>
      <Point>
        <coordinates>19.099903,50.709558</coordinates>
      </Point>
    </Placemark>
    <Placemark>
      <name>MIELCZARSKIEGO</name>
      <Point>
        <coordinates>19.127734,50.807562</coordinates>
      </Point>
    </Placemark>
    <Placemark>
      <name>MIRECKIEGO</name>
      <Point>
        <coordinates>19.14784,50.778318</coordinates>
      </Point>
    </Placemark>
    <Placemark>
      <name>MIROWSKA</name>
      <Point>
        <coordinates>19.195261,50.818164</coordinates>
      </Point>
    </Placemark>
    <Placemark>
      <name>MIRÓW</name>
      <Point>
        <coordinates>19.2029,50.818896</coordinates>
      </Point>
    </Placemark>
    <Placemark>
      <name>MIRÓW - PEGAZ</name>
      <Point>
        <coordinates>19.215002,50.821391</coordinates>
      </Point>
    </Placemark>
    <Placemark>
      <name>MŁYNEK</name>
      <Point>
        <coordinates>19.083853,50.724503</coordinates>
      </Point>
    </Placemark>
    <Placemark>
      <name>MONIUSZKI</name>
      <Point>
        <coordinates>19.087672,50.790921</coordinates>
      </Point>
    </Placemark>
    <Placemark>
      <name>MONTEX</name>
      <Point>
        <coordinates>19.117799,50.783474</coordinates>
      </Point>
    </Placemark>
    <Placemark>
      <name>MORENOWA</name>
      <Point>
        <coordinates>19.173803,50.816294</coordinates>
      </Point>
    </Placemark>
    <Placemark>
      <name>MSTOWSKA</name>
      <Point>
        <coordinates>19.208565,50.820876</coordinates>
      </Point>
    </Placemark>
    <Placemark>
      <name>NARCYZOWA</name>
      <Point>
        <coordinates>19.109302,50.852396</coordinates>
      </Point>
    </Placemark>
    <Placemark>
      <name>NIERADA</name>
      <Point>
        <coordinates>19.050808,50.708961</coordinates>
      </Point>
    </Placemark>
    <Placemark>
      <name>NIERADA - KOŚCIÓŁ</name>
      <Point>
        <coordinates>19.083681,50.708961</coordinates>
      </Point>
    </Placemark>
    <Placemark>
      <name>NIERADA - SKRZYŻOWANIE</name>
      <Point>
        <coordinates>19.071665,50.708689</coordinates>
      </Point>
    </Placemark>
    <Placemark>
      <name>NIERADA - SZKOŁA</name>
      <Point>
        <coordinates>19.090934,50.710265</coordinates>
      </Point>
    </Placemark>
    <Placemark>
      <name>NIERADA - TARGOWA I</name>
      <Point>
        <coordinates>19.089775,50.708906</coordinates>
      </Point>
    </Placemark>
    <Placemark>
      <name>NIERADA - TARGOWA II</name>
      <Point>
        <coordinates>19.057074,50.708906</coordinates>
      </Point>
    </Placemark>
    <Placemark>
      <name>NORWIDA</name>
      <Point>
        <coordinates>19.163353,50.838115</coordinates>
      </Point>
    </Placemark>
    <Placemark>
      <name>NOWA WIEŚ - AUCHAN</name>
      <Point>
        <coordinates>19.160714,50.736021</coordinates>
      </Point>
    </Placemark>
    <Placemark>
      <name>NOWA WIEŚ - SKRZYŻOWANIE</name>
      <Point>
        <coordinates>19.162431,50.733169</coordinates>
      </Point>
    </Placemark>
    <Placemark>
      <name>NOWA WIEŚ I</name>
      <Point>
        <coordinates>19.17007,50.727491</coordinates>
      </Point>
    </Placemark>
    <Placemark>
      <name>NOWA WIEŚ II</name>
      <Point>
        <coordinates>19.167795,50.724476</coordinates>
      </Point>
    </Placemark>
    <Placemark>
      <name>NOWE BRZEZINY I</name>
      <Point>
        <coordinates>19.093852,50.745282</coordinates>
      </Point>
    </Placemark>
    <Placemark>
      <name>NOWE BRZEZINY II</name>
      <Point>
        <coordinates>19.093165,50.744005</coordinates>
      </Point>
    </Placemark>
    <Placemark>
      <name>NOWOBIALSKA</name>
      <Point>
        <coordinates>19.088037,50.829334</coordinates>
      </Point>
    </Placemark>
    <Placemark>
      <name>OBROŃCÓW POCZTY GDAŃSKIEJ</name>
      <Point>
        <coordinates>19.105439,50.83096</coordinates>
      </Point>
    </Placemark>
    <Placemark>
      <name>OBROŃCÓW WESTERPLATTE</name>
      <Point>
        <coordinates>19.115889,50.834633</coordinates>
      </Point>
    </Placemark>
    <Placemark>
      <name>OCZYSZCZALNIA WARTA</name>
      <Point>
        <coordinates>19.162474,50.822069</coordinates>
      </Point>
    </Placemark>
    <Placemark>
      <name>ODRODZENIA</name>
      <Point>
        <coordinates>19.072909,50.828792</coordinates>
      </Point>
    </Placemark>
    <Placemark>
      <name>ODRZYKOŃ</name>
      <Point>
        <coordinates>19.223886,50.760025</coordinates>
      </Point>
    </Placemark>
    <Placemark>
      <name>ODRZYKOŃ - NARCYZOWA</name>
      <Point>
        <coordinates>19.225044,50.755627</coordinates>
      </Point>
    </Placemark>
    <Placemark>
      <name>OKRZEI</name>
      <Point>
        <coordinates>19.145908,50.78053</coordinates>
      </Point>
    </Placemark>
    <Placemark>
      <name>OKULICKIEGO</name>
      <Point>
        <coordinates>19.093423,50.82478</coordinates>
      </Point>
    </Placemark>
    <Placemark>
      <name>OLEŃKI</name>
      <Point>
        <coordinates>19.092758,50.80984</coordinates>
      </Point>
    </Placemark>
    <Placemark>
      <name>OLSZTYN MSTOWSKA</name>
      <Point>
        <coordinates>19.268346,50.756848</coordinates>
      </Point>
    </Placemark>
    <Placemark>
      <name>OLSZTYN NAPOLEONA</name>
      <Point>
        <coordinates>19.267831,50.747508</coordinates>
      </Point>
    </Placemark>
    <Placemark>
      <name>OLSZTYN RYNEK</name>
      <Point>
        <coordinates>19.268432,50.750441</coordinates>
      </Point>
    </Placemark>
    <Placemark>
      <name>OLSZTYN SOKOLE GÓRY</name>
      <Point>
        <coordinates>19.264827,50.732517</coordinates>
      </Point>
    </Placemark>
    <Placemark>
      <name>OLSZTYN ŚW. PUSZCZY</name>
      <Point>
        <coordinates>19.266758,50.743734</coordinates>
      </Point>
    </Placemark>
    <Placemark>
      <name>OLSZTYN ŻWIRKI I WIGURY</name>
      <Point>
        <coordinates>19.258089,50.7534</coordinates>
      </Point>
    </Placemark>
    <Placemark>
      <name>ORKANA - SZKOŁA</name>
      <Point>
        <coordinates>2.0,2.0</coordinates>
      </Point>
    </Placemark>
    <Placemark>
      <name>ORLIK-RUCKEMANNA</name>
      <Point>
        <coordinates>19.144707,50.806287</coordinates>
      </Point>
    </Placemark>
    <Placemark>
      <name>OS. POD WILCZĄ GÓRĄ</name>
      <Point>
        <coordinates>19.230709,50.762359</coordinates>
      </Point>
    </Placemark>
    <Placemark>
      <name>OSTATNI GROSZ</name>
      <Point>
        <coordinates>19.127283,50.793322</coordinates>
      </Point>
    </Placemark>
    <Placemark>
      <name>PARKITKA - OSIEDLE</name>
      <Point>
        <coordinates>19.093573,50.824102</coordinates>
      </Point>
    </Placemark>
    <Placemark>
      <name>PARKITKA - SZPITAL</name>
      <Point>
        <coordinates>19.088616,50.82871</coordinates>
      </Point>
    </Placemark>
    <Placemark>
      <name>PIASTOWSKA</name>
      <Point>
        <coordinates>19.103336,50.795845</coordinates>
      </Point>
    </Placemark>
    <Placemark>
      <name>PILECKIEGO - RONDO</name>
      <Point>
        <coordinates>19.126811,50.849226</coordinates>
      </Point>
    </Placemark>
    <Placemark>
      <name>PIŁSUDSKIEGO</name>
      <Point>
        <coordinates>19.122562,50.810653</coordinates>
      </Point>
    </Placemark>
    <Placemark>
      <name>PLAC BIEGAŃSKIEGO</name>
      <Point>
        <coordinates>19.113078,50.811874</coordinates>
      </Point>
    </Placemark>
    <Placemark>
      <name>PLAC DASZYŃSKIEGO</name>
      <Point>
        <coordinates>19.127047,50.811623</coordinates>
      </Point>
    </Placemark>
    <Placemark>
      <name>PLAC ORLĄT LWOWSKICH</name>
      <Point>
        <coordinates>19.148333,50.786377</coordinates>
      </Point>
    </Placemark>
    <Placemark>
      <name>PLAC PAMIĘCI NARODOWEJ</name>
      <Point>
        <coordinates>19.113816,50.806004</coordinates>
      </Point>
    </Placemark>
    <Placemark>
      <name>POCZESNA BOCIANIA GÓRKA</name>
      <Point>
        <coordinates>19.156208,50.71445</coordinates>
      </Point>
    </Placemark>
    <Placemark>
      <name>POCZESNA BOREK</name>
      <Point>
        <coordinates>19.152346,50.704068</coordinates>
      </Point>
    </Placemark>
    <Placemark>
      <name>POCZESNA GÓRNICZA</name>
      <Point>
        <coordinates>19.162817,50.704721</coordinates>
      </Point>
    </Placemark>
    <Placemark>
      <name>POCZESNA HANDLOWA</name>
      <Point>
        <coordinates>19.153633,50.715428</coordinates>
      </Point>
    </Placemark>
    <Placemark>
      <name>POCZESNA KATOWICKA</name>
      <Point>
        <coordinates>19.150372,50.715374</coordinates>
      </Point>
    </Placemark>
    <Placemark>
      <name>POCZESNA KOŚCIÓŁ</name>
      <Point>
        <coordinates>19.162774,50.718879</coordinates>
      </Point>
    </Placemark>
    <Placemark>
      <name>POCZESNA ŁĄKOWA I</name>
      <Point>
        <coordinates>19.130845,50.715292</coordinates>
      </Point>
    </Placemark>
    <Placemark>
      <name>POCZESNA ŁĄKOWA II</name>
      <Point>
        <coordinates>19.129729,50.715618</coordinates>
      </Point>
    </Placemark>
    <Placemark>
      <name>POCZESNA OSP</name>
      <Point>
        <coordinates>19.155178,50.714015</coordinates>
      </Point>
    </Placemark>
    <Placemark>
      <name>POCZESNA POŁUDNIOWA</name>
      <Point>
        <coordinates>19.132991,50.714396</coordinates>
      </Point>
    </Placemark>
    <Placemark>
      <name>POCZESNA POŁUDNIOWA I</name>
      <Point>
        <coordinates>19.142776,50.714613</coordinates>
      </Point>
    </Placemark>
    <Placemark>
      <name>POCZESNA PROSTA</name>
      <Point>
        <coordinates>19.154363,50.708553</coordinates>
      </Point>
    </Placemark>
    <Placemark>
      <name>POCZESNA STRAŻACKA</name>
      <Point>
        <coordinates>19.15904,50.715482</coordinates>
      </Point>
    </Placemark>
    <Placemark>
      <name>POCZESNA SZKOŁA</name>
      <Point>
        <coordinates>19.154234,50.713689</coordinates>
      </Point>
    </Placemark>
    <Placemark>
      <name>POLITECHNIKA</name>
      <Point>
        <coordinates>19.117842,50.821147</coordinates>
      </Point>
    </Placemark>
    <Placemark>
      <name>POLONTEX</name>
      <Point>
        <coordinates>19.14211,50.793661</coordinates>
      </Point>
    </Placemark>
    <Placemark>
      <name>POLSKIEGO CZERWONEGO KRZYŻA </name>
      <Point>
        <coordinates>19.115868,50.83077</coordinates>
      </Point>
    </Placemark>
    <Placemark>
      <name>POSELSKA</name>
      <Point>
        <coordinates>19.097114,50.771534</coordinates>
      </Point>
    </Placemark>
    <Placemark>
      <name>POWSTAŃCÓW ŚLĄSKICH</name>
      <Point>
        <coordinates>19.137454,50.78673</coordinates>
      </Point>
    </Placemark>
    <Placemark>
      <name>POWSTAŃCÓW WARSZAWY</name>
      <Point>
        <coordinates>19.071965,50.765047</coordinates>
      </Point>
    </Placemark>
    <Placemark>
      <name>PROMENADA NIEMENA</name>
      <Point>
        <coordinates>19.11664,50.833671</coordinates>
      </Point>
    </Placemark>
    <Placemark>
      <name>PRUSA</name>
      <Point>
        <coordinates>19.153891,50.784423</coordinates>
      </Point>
    </Placemark>
    <Placemark>
      <name>PRZESTRZENNA</name>
      <Point>
        <coordinates>19.071107,50.800131</coordinates>
      </Point>
    </Placemark>
    <Placemark>
      <name>PRZYJEMNA</name>
      <Point>
        <coordinates>19.045916,50.748024</coordinates>
      </Point>
    </Placemark>
    <Placemark>
      <name>PUSTA</name>
      <Point>
        <coordinates>19.132991,50.789741</coordinates>
      </Point>
    </Placemark>
    <Placemark>
      <name>RAKOWSKA</name>
      <Point>
        <coordinates>19.156401,50.772809</coordinates>
      </Point>
    </Placemark>
    <Placemark>
      <name>RAKÓW - DWORZEC PKP</name>
      <Point>
        <coordinates>19.150908,50.787394</coordinates>
      </Point>
    </Placemark>
    <Placemark>
      <name>REJTANA</name>
      <Point>
        <coordinates>19.155006,50.78909</coordinates>
      </Point>
    </Placemark>
    <Placemark>
      <name>REJTANA - SĄDY</name>
      <Point>
        <coordinates>19.155972,50.788941</coordinates>
      </Point>
    </Placemark>
    <Placemark>
      <name>ROLNICZA - CMENTARZ KULE</name>
      <Point>
        <coordinates>19.131918,50.826189</coordinates>
      </Point>
    </Placemark>
    <Placemark>
      <name>RONDO MICKIEWICZA </name>
      <Point>
        <coordinates>19.11804,50.801226</coordinates>
      </Point>
    </Placemark>
    <Placemark>
      <name>RONDO TRZECH KRZYŻY</name>
      <Point>
        <coordinates>19.13003,50.818205</coordinates>
      </Point>
    </Placemark>
    <Placemark>
      <name>RÓWNOLEGŁA</name>
      <Point>
        <coordinates>19.132819,50.789714</coordinates>
      </Point>
    </Placemark>
    <Placemark>
      <name>RUTKIEWICZ</name>
      <Point>
        <coordinates>19.125781,50.777775</coordinates>
      </Point>
    </Placemark>
    <Placemark>
      <name>RYDZA-ŚMIGŁEGO</name>
      <Point>
        <coordinates>19.122133,50.779811</coordinates>
      </Point>
    </Placemark>
    <Placemark>
      <name>RYNEK NARUTOWICZA</name>
      <Point>
        <coordinates>19.13887,50.812728</coordinates>
      </Point>
    </Placemark>
    <Placemark>
      <name>RYNEK WIELUŃSKI</name>
      <Point>
        <coordinates>19.096577,50.816497</coordinates>
      </Point>
    </Placemark>
    <Placemark>
      <name>RZĄSAWA</name>
      <Point>
        <coordinates>19.169254,50.871764</coordinates>
      </Point>
    </Placemark>
    <Placemark>
      <name>RZĄSAWA - DWORZEC PKP</name>
      <Point>
        <coordinates>19.176679,50.884869</coordinates>
      </Point>
    </Placemark>
    <Placemark>
      <name>RZĄSAWSKA - UCZELNIA</name>
      <Point>
        <coordinates>19.160929,50.843834</coordinates>
      </Point>
    </Placemark>
    <Placemark>
      <name>RZECZNA</name>
      <Point>
        <coordinates>19.07542,50.766933</coordinates>
      </Point>
    </Placemark>
    <Placemark>
      <name>SABINOWSKA</name>
      <Point>
        <coordinates>19.101276,50.789388</coordinates>
      </Point>
    </Placemark>
    <Placemark>
      <name>SABINÓW</name>
      <Point>
        <coordinates>19.094238,50.77403</coordinates>
      </Point>
    </Placemark>
    <Placemark>
      <name>SĄSIEDZKA</name>
      <Point>
        <coordinates>19.182386,50.839565</coordinates>
      </Point>
    </Placemark>
    <Placemark>
      <name>SCHILLERA</name>
      <Point>
        <coordinates>19.119623,50.842601</coordinates>
      </Point>
    </Placemark>
    <Placemark>
      <name>SKARPOWA</name>
      <Point>
        <coordinates>19.19157,50.817378</coordinates>
      </Point>
    </Placemark>
    <Placemark>
      <name>SKORKI</name>
      <Point>
        <coordinates>19.033556,50.762916</coordinates>
      </Point>
    </Placemark>
    <Placemark>
      <name>SKRAJNICA</name>
      <Point>
        <coordinates>19.24103,50.743231</coordinates>
      </Point>
    </Placemark>
    <Placemark>
      <name>SKRZYNECKIEGO</name>
      <Point>
        <coordinates>19.114108,50.819357</coordinates>
      </Point>
    </Placemark>
    <Placemark>
      <name>SKWER SOKOŁÓW</name>
      <Point>
        <coordinates>19.105418,50.805321</coordinates>
      </Point>
    </Placemark>
    <Placemark>
      <name>SŁONIMSKIEGO</name>
      <Point>
        <coordinates>19.104538,50.820849</coordinates>
      </Point>
    </Placemark>
    <Placemark>
      <name>SŁOWACKIEGO</name>
      <Point>
        <coordinates>19.111179,50.802619</coordinates>
      </Point>
    </Placemark>
    <Placemark>
      <name>SŁOWIK I</name>
      <Point>
        <coordinates>19.167194,50.745472</coordinates>
      </Point>
    </Placemark>
    <Placemark>
      <name>SŁOWIK II</name>
      <Point>
        <coordinates>19.172516,50.744766</coordinates>
      </Point>
    </Placemark>
    <Placemark>
      <name>SOBUCZYNA</name>
      <Point>
        <coordinates>19.083681,50.733467</coordinates>
      </Point>
    </Placemark>
    <Placemark>
      <name>SOBUCZYNA-SZAFIROWA</name>
      <Point>
        <coordinates>19.087436,50.737623</coordinates>
      </Point>
    </Placemark>
    <Placemark>
      <name>SPORTOWA</name>
      <Point>
        <coordinates>19.13578,50.775442</coordinates>
      </Point>
    </Placemark>
    <Placemark>
      <name>STADION CKS BUDOWLANI</name>
      <Point>
        <coordinates>19.112477,50.819805</coordinates>
      </Point>
    </Placemark>
    <Placemark>
      <name>STADION MIEJSKI</name>
      <Point>
        <coordinates>19.150028,50.80127</coordinates>
      </Point>
    </Placemark>
    <Placemark>
      <name>STADION RAKÓW</name>
      <Point>
        <coordinates>19.156895,50.778128</coordinates>
      </Point>
    </Placemark>
    <Placemark>
      <name>STARA GORZELNIA</name>
      <Point>
        <coordinates>18.998623,50.826162</coordinates>
      </Point>
    </Placemark>
    <Placemark>
      <name>STARA GORZELNIA I</name>
      <Point>
        <coordinates>19.004974,50.825403</coordinates>
      </Point>
    </Placemark>
    <Placemark>
      <name>STARY RAKÓW</name>
      <Point>
        <coordinates>19.155865,50.784451</coordinates>
      </Point>
    </Placemark>
    <Placemark>
      <name>STARY RYNEK</name>
      <Point>
        <coordinates>19.128098,50.81224</coordinates>
      </Point>
    </Placemark>
    <Placemark>
      <name>STARZYŃSKIEGO</name>
      <Point>
        <coordinates>19.13018,50.846381</coordinates>
      </Point>
    </Placemark>
    <Placemark>
      <name>STRADOM</name>
      <Point>
        <coordinates>19.112177,50.798001</coordinates>
      </Point>
    </Placemark>
    <Placemark>
      <name>STRADOM - DWORZEC PKP</name>
      <Point>
        <coordinates>19.107456,50.798056</coordinates>
      </Point>
    </Placemark>
    <Placemark>
      <name>STROMA</name>
      <Point>
        <coordinates>19.132948,50.794</coordinates>
      </Point>
    </Placemark>
    <Placemark>
      <name>SZKOŁA STRAŻY POŻARNEJ</name>
      <Point>
        <coordinates>19.099903,50.785644</coordinates>
      </Point>
    </Placemark>
    <Placemark>
      <name>SZPITALNA</name>
      <Point>
        <coordinates>19.164813,50.796306</coordinates>
      </Point>
    </Placemark>
    <Placemark>
      <name>ŚW. AUGUSTYNA</name>
      <Point>
        <coordinates>19.102349,50.804253</coordinates>
      </Point>
    </Placemark>
    <Placemark>
      <name>ŚW. BARBARY</name>
      <Point>
        <coordinates>19.095011,50.804769</coordinates>
      </Point>
    </Placemark>
    <Placemark>
      <name>ŚW. BARBARY - SZPITAL</name>
      <Point>
        <coordinates>19.09544,50.806667</coordinates>
      </Point>
    </Placemark>
    <Placemark>
      <name>ŚW. BRATA ALBERTA</name>
      <Point>
        <coordinates>19.133935,50.860875</coordinates>
      </Point>
    </Placemark>
    <Placemark>
      <name>ŚW. KAZIMIERZA</name>
      <Point>
        <coordinates>19.103937,50.808159</coordinates>
      </Point>
    </Placemark>
    <Placemark>
      <name>ŚW. KINGI</name>
      <Point>
        <coordinates>19.087672,50.803331</coordinates>
      </Point>
    </Placemark>
    <Placemark>
      <name>ŚW. KRZYSZTOFA</name>
      <Point>
        <coordinates>19.088316,50.822638</coordinates>
      </Point>
    </Placemark>
    <Placemark>
      <name>ŚW. ROCHA - SZKOŁA</name>
      <Point>
        <coordinates>19.075377,50.826908</coordinates>
      </Point>
    </Placemark>
    <Placemark>
      <name>TATRZAŃSKA</name>
      <Point>
        <coordinates>19.044178,50.817934</coordinates>
      </Point>
    </Placemark>
    <Placemark>
      <name>TEATR IM. A. MICKIEWICZA</name>
      <Point>
        <coordinates>19.114172,50.815053</coordinates>
      </Point>
    </Placemark>
    <Placemark>
      <name>TURYSTYCZNA</name>
      <Point>
        <coordinates>19.205475,50.808782</coordinates>
      </Point>
    </Placemark>
    <Placemark>
      <name>TYSIĄCLECIE - SZPITAL</name>
      <Point>
        <coordinates>19.110342,50.82993</coordinates>
      </Point>
    </Placemark>
    <Placemark>
      <name>UGODY</name>
      <Point>
        <coordinates>19.167881,50.857408</coordinates>
      </Point>
    </Placemark>
    <Placemark>
      <name>URZĄD CELNY</name>
      <Point>
        <coordinates>19.16419,50.807236</coordinates>
      </Point>
    </Placemark>
    <Placemark>
      <name>WALCOWNIA</name>
      <Point>
        <coordinates>19.191999,50.776174</coordinates>
      </Point>
    </Placemark>
    <Placemark>
      <name>WAWRZYNOWICZA</name>
      <Point>
        <coordinates>19.105096,50.827219</coordinates>
      </Point>
    </Placemark>
    <Placemark>
      <name>WĄSOSZ</name>
      <Point>
        <coordinates>19.05055,50.736034</coordinates>
      </Point>
    </Placemark>
    <Placemark>
      <name>WĄSOSZ - SKRZYŻOWANIE</name>
      <Point>
        <coordinates>19.045594,50.735369</coordinates>
      </Point>
    </Placemark>
    <Placemark>
      <name>WCZASOWA</name>
      <Point>
        <coordinates>19.117413,50.777151</coordinates>
      </Point>
    </Placemark>
    <Placemark>
      <name>WEYSSENHOFF</name>
      <Point>
        <coordinates>19.176207,50.765834</coordinates>
      </Point>
    </Placemark>
    <Placemark>
      <name>WICHROWA</name>
      <Point>
        <coordinates>19.057975,50.805826</coordinates>
      </Point>
    </Placemark>
    <Placemark>
      <name>WIELKOBORSKA</name>
      <Point>
        <coordinates>19.044113,50.817866</coordinates>
      </Point>
    </Placemark>
    <Placemark>
      <name>WITAMINOWA</name>
      <Point>
        <coordinates>19.116898,50.769376</coordinates>
      </Point>
    </Placemark>
    <Placemark>
      <name>WITOSA</name>
      <Point>
        <coordinates>19.138677,50.841544</coordinates>
      </Point>
    </Placemark>
    <Placemark>
      <name>WOLNA</name>
      <Point>
        <coordinates>19.142132,50.808809</coordinates>
      </Point>
    </Placemark>
    <Placemark>
      <name>WRĘCZYCKA</name>
      <Point>
        <coordinates>19.081278,50.82215</coordinates>
      </Point>
    </Placemark>
    <Placemark>
      <name>WRZOSOWA</name>
      <Point>
        <coordinates>19.148998,50.74854</coordinates>
      </Point>
    </Placemark>
    <Placemark>
      <name>WRZOSOWA - DŁUGA</name>
      <Point>
        <coordinates>19.1399,50.746368</coordinates>
      </Point>
    </Placemark>
    <Placemark>
      <name>WRZOSOWA - KŁADKA</name>
      <Point>
        <coordinates>19.153569,50.746517</coordinates>
      </Point>
    </Placemark>
    <Placemark>
      <name>WRZOSOWA - OGRODOWA</name>
      <Point>
        <coordinates>19.160457,50.753007</coordinates>
      </Point>
    </Placemark>
    <Placemark>
      <name>WRZOSOWA - SABINOWSKA I</name>
      <Point>
        <coordinates>19.136467,50.743747</coordinates>
      </Point>
    </Placemark>
    <Placemark>
      <name>WRZOSOWA - SZKOŁA</name>
      <Point>
        <coordinates>19.152238,50.745499</coordinates>
      </Point>
    </Placemark>
    <Placemark>
      <name>WRZOSOWIAK</name>
      <Point>
        <coordinates>19.135866,50.776473</coordinates>
      </Point>
    </Placemark>
    <Placemark>
      <name>WSPÓLNA</name>
      <Point>
        <coordinates>19.149063,50.807752</coordinates>
      </Point>
    </Placemark>
    <Placemark>
      <name>WYCZERPY - OSIEDLE</name>
      <Point>
        <coordinates>19.164448,50.833427</coordinates>
      </Point>
    </Placemark>
    <Placemark>
      <name>WYCZERPY DOLNE</name>
      <Point>
        <coordinates>19.147561,50.831502</coordinates>
      </Point>
    </Placemark>
    <Placemark>
      <name>WYCZERPY GÓRNE</name>
      <Point>
        <coordinates>19.16904,50.840365</coordinates>
      </Point>
    </Placemark>
    <Placemark>
      <name>WYGODA</name>
      <Point>
        <coordinates>19.025531,50.735314</coordinates>
      </Point>
    </Placemark>
    <Placemark>
      <name>WYPOCZYNKU</name>
      <Point>
        <coordinates>19.166336,50.852775</coordinates>
      </Point>
    </Placemark>
    <Placemark>
      <name>WYSZYŃSKIEGO</name>
      <Point>
        <coordinates>19.084454,50.814151</coordinates>
      </Point>
    </Placemark>
    <Placemark>
      <name>ZAJEZDNIA MPK</name>
      <Point>
        <coordinates>19.136081,50.787516</coordinates>
      </Point>
    </Placemark>
    <Placemark>
      <name>ZANA</name>
      <Point>
        <coordinates>19.102373,50.802899</coordinates>
      </Point>
    </Placemark>
    <Placemark>
      <name>ZAWODZIE</name>
      <Point>
        <coordinates>19.177784,50.724347</coordinates>
      </Point>
    </Placemark>
    <Placemark>
      <name>ZAWODZIE - CMENTARNA</name>
      <Point>
        <coordinates>19.162495,50.70964</coordinates>
      </Point>
    </Placemark>
    <Placemark>
      <name>ZAWODZIE - CMENTARZ</name>
      <Point>
        <coordinates>19.164019,50.711529</coordinates>
      </Point>
    </Placemark>
    <Placemark>
      <name>ZAWODZIE - DŁUGA I</name>
      <Point>
        <coordinates>19.167516,50.713322</coordinates>
      </Point>
    </Placemark>
    <Placemark>
      <name>ZAWODZIE - DŁUGA II</name>
      <Point>
        <coordinates>19.174576,50.719531</coordinates>
      </Point>
    </Placemark>
    <Placemark>
      <name>ZAWODZIE - SZPITAL</name>
      <Point>
        <coordinates>19.132175,50.811711</coordinates>
      </Point>
    </Placemark>
    <Placemark>
      <name>ZBYSZKA</name>
      <Point>
        <coordinates>19.085526,50.771479</coordinates>
      </Point>
    </Placemark>
    <Placemark>
      <name>ZDROWA</name>
      <Point>
        <coordinates>19.093466,50.762604</coordinates>
      </Point>
    </Placemark>
    <Placemark>
      <name>ZEGAROWA</name>
      <Point>
        <coordinates>19.081793,50.75902</coordinates>
      </Point>
    </Placemark>
    <Placemark>
      <name>ZIELNA</name>
      <Point>
        <coordinates>19.168053,50.857164</coordinates>
      </Point>
    </Placemark>
    <Placemark>
      <name>ZIMOWA</name>
      <Point>
        <coordinates>19.126854,50.784396</coordinates>
      </Point>
    </Placemark>
    <Placemark>
      <name>ZŁOTA</name>
      <Point>
        <coordinates>19.154663,50.806884</coordinates>
      </Point>
    </Placemark>
    <Placemark>
      <name>ŻABINIEC</name>
      <Point>
        <coordinates>19.066386,50.857706</coordinates>
      </Point>
    </Placemark>
    <Placemark>
      <name>ŻARECKA</name>
      <Point>
        <coordinates>19.157238,50.775143</coordinates>
      </Point>
    </Placemark>
    <Placemark>
      <name>ŻEROMSKIEGO</name>
      <Point>
        <coordinates>19.149685,50.791803</coordinates>
      </Point>
    </Placemark>
    <Placemark>
      <name>ŻONKILOWA</name>
      <Point>
        <coordinates>19.129257,50.853507</coordinates>
      </Point>
    </Placemark>
    <Placemark>
      <name>ŻYZNA</name>
      <Point>
        <coordinates>19.094024,50.758749</coordinates>
      </Point>
    </Placemark>
  </Document>
</kml>
